$GPGGA,195023.984,4732.159,N,12220.028,W,1,12,1.0,0.0,M,0.0,M,,*73
$GPGSA,A,3,01,02,03,04,05,06,07,08,09,10,11,12,1.0,1.0,1.0*30
$GPRMC,195023.984,A,4732.159,N,12220.028,W,038.9,291.6,140819,000.0,W*6C
$GPGGA,195024.984,4732.164,N,12220.041,W,1,12,1.0,0.0,M,0.0,M,,*75
$GPGSA,A,3,01,02,03,04,05,06,07,08,09,10,11,12,1.0,1.0,1.0*30
$GPRMC,195024.984,A,4732.164,N,12220.041,W,038.9,291.6,140819,000.0,W*6A
$GPGGA,195025.984,4732.170,N,12220.055,W,1,12,1.0,0.0,M,0.0,M,,*74
$GPGSA,A,3,01,02,03,04,05,06,07,08,09,10,11,12,1.0,1.0,1.0*30
$GPRMC,195025.984,A,4732.170,N,12220.055,W,038.9,291.6,140819,000.0,W*6B
$GPGGA,195026.984,4732.175,N,12220.069,W,1,12,1.0,0.0,M,0.0,M,,*7D
$GPGSA,A,3,01,02,03,04,05,06,07,08,09,10,11,12,1.0,1.0,1.0*30
$GPRMC,195026.984,A,4732.175,N,12220.069,W,038.9,291.6,140819,000.0,W*62
$GPRMB,A,0.66,L,003,004,4917.24,N,12309.57,W,001.3,052.5,000.5,V*20
$GPGGA,195027.984,4732.180,N,12220.083,W,1,12,1.0,0.0,M,0.0,M,,*72
$GPGSA,A,3,01,02,03,04,05,06,07,08,09,10,11,12,1.0,1.0,1.0*30
$GPRMC,195027.984,A,4732.180,N,12220.083,W,038.9,291.6,140819,000.0,W*6D
$GPGGA,195028.984,4732.186,N,12220.097,W,1,12,1.0,0.0,M,0.0,M,,*7E
$GPGSA,A,3,01,02,03,04,05,06,07,08,09,10,11,12,1.0,1.0,1.0*30
$GPRMC,195028.984,A,4732.186,N,12220.097,W,038.9,291.6,140819,000.0,W*61
$GPGGA,195029.984,4732.191,N,12220.110,W,1,12,1.0,0.0,M,0.0,M,,*77
$GPGSA,A,3,01,02,03,04,05,06,07,08,09,10,11,12,1.0,1.0,1.0*30
$GPRMC,195029.984,A,4732.191,N,12220.110,W,038.9,291.6,140819,000.0,W*68
$GPGGA,195030.984,4732.197,N,12220.124,W,1,12,1.0,0.0,M,0.0,M,,*7E
$GPGSA,A,3,01,02,03,04,05,06,07,08,09,10,11,12,1.0,1.0,1.0*30
$GPRMC,195030.984,A,4732.197,N,12220.124,W,038.9,291.6,140819,000.0,W*61
$GPGGA,195031.984,4732.202,N,12220.138,W,1,12,1.0,0.0,M,0.0,M,,*7D
$GPGSA,A,3,01,02,03,04,05,06,07,08,09,10,11,12,1.0,1.0,1.0*30
$GPRMC,195031.984,A,4732.202,N,12220.138,W,038.9,291.6,140819,000.0,W*62
$GPGGA,195032.984,4732.208,N,12220.152,W,1,12,1.0,0.0,M,0.0,M,,*78
$GPGSA,A,3,01,02,03,04,05,06,07,08,09,10,11,12,1.0,1.0,1.0*30
$GPRMC,195032.984,A,4732.208,N,12220.152,W,038.9,291.6,140819,000.0,W*67
$GPGGA,195033.984,4732.213,N,12220.166,W,1,12,1.0,0.0,M,0.0,M,,*74
$GPGSA,A,3,01,02,03,04,05,06,07,08,09,10,11,12,1.0,1.0,1.0*30
$GPRMC,195033.984,A,4732.213,N,12220.166,W,038.9,291.6,140819,000.0,W*6B
$GPGGA,195034.984,4732.219,N,12220.180,W,1,12,1.0,0.0,M,0.0,M,,*71
$GPGSA,A,3,01,02,03,04,05,06,07,08,09,10,11,12,1.0,1.0,1.0*30
$GPRMC,195034.984,A,4732.219,N,12220.180,W,038.9,291.6,140819,000.0,W*6E
$GPGGA,195035.984,4732.224,N,12220.193,W,1,12,1.0,0.0,M,0.0,M,,*7C
$GPGSA,A,3,01,02,03,04,05,06,07,08,09,10,11,12,1.0,1.0,1.0*30
$GPRMC,195035.984,A,4732.224,N,12220.193,W,038.9,291.6,140819,000.0,W*63
$GPGGA,195036.984,4732.229,N,12220.207,W,1,12,1.0,0.0,M,0.0,M,,*7C
$GPGSA,A,3,01,02,03,04,05,06,07,08,09,10,11,12,1.0,1.0,1.0*30
$GPRMC,195036.984,A,4732.229,N,12220.207,W,038.9,291.6,140819,000.0,W*63
$GPGGA,195037.984,4732.235,N,12220.221,W,1,12,1.0,0.0,M,0.0,M,,*74
$GPGSA,A,3,01,02,03,04,05,06,07,08,09,10,11,12,1.0,1.0,1.0*30
$GPRMC,195037.984,A,4732.235,N,12220.221,W,038.9,291.6,140819,000.0,W*6B
$GPGGA,195038.984,4732.240,N,12220.235,W,1,12,1.0,0.0,M,0.0,M,,*7C
$GPGSA,A,3,01,02,03,04,05,06,07,08,09,10,11,12,1.0,1.0,1.0*30
$GPRMC,195038.984,A,4732.240,N,12220.235,W,038.9,291.6,140819,000.0,W*63
$GPGGA,195039.984,4732.246,N,12220.249,W,1,12,1.0,0.0,M,0.0,M,,*70
$GPGSA,A,3,01,02,03,04,05,06,07,08,09,10,11,12,1.0,1.0,1.0*30
$GPRMC,195039.984,A,4732.246,N,12220.249,W,038.9,291.6,140819,000.0,W*6F
$GPGGA,195040.984,4732.251,N,12220.262,W,1,12,1.0,0.0,M,0.0,M,,*71
$GPGSA,A,3,01,02,03,04,05,06,07,08,09,10,11,12,1.0,1.0,1.0*30
$GPRMC,195040.984,A,4732.251,N,12220.262,W,038.9,328.4,140819,000.0,W*6F
$GPGGA,195041.984,4732.261,N,12220.268,W,1,12,1.0,0.0,M,0.0,M,,*79
$GPGSA,A,3,01,02,03,04,05,06,07,08,09,10,11,12,1.0,1.0,1.0*30
$GPRMC,195041.984,A,4732.261,N,12220.268,W,038.9,328.4,140819,000.0,W*67
$GPGGA,195042.984,4732.271,N,12220.275,W,1,12,1.0,0.0,M,0.0,M,,*77
$GPGSA,A,3,01,02,03,04,05,06,07,08,09,10,11,12,1.0,1.0,1.0*30
$GPRMC,195042.984,A,4732.271,N,12220.275,W,038.9,328.4,140819,000.0,W*69
$GPGGA,195043.984,4732.281,N,12220.281,W,1,12,1.0,0.0,M,0.0,M,,*72
$GPGSA,A,3,01,02,03,04,05,06,07,08,09,10,11,12,1.0,1.0,1.0*30
$GPRMC,195043.984,A,4732.281,N,12220.281,W,038.9,328.4,140819,000.0,W*6C
$GPGGA,195044.984,4732.291,N,12220.287,W,1,12,1.0,0.0,M,0.0,M,,*72
$GPGSA,A,3,01,02,03,04,05,06,07,08,09,10,11,12,1.0,1.0,1.0*30
$GPRMC,195044.984,A,4732.291,N,12220.287,W,038.9,328.4,140819,000.0,W*6C
$GPGGA,195045.984,4732.301,N,12220.293,W,1,12,1.0,0.0,M,0.0,M,,*7E
$GPGSA,A,3,01,02,03,04,05,06,07,08,09,10,11,12,1.0,1.0,1.0*30
$GPRMC,195045.984,A,4732.301,N,12220.293,W,038.9,328.4,140819,000.0,W*60
$GPGGA,195046.984,4732.311,N,12220.299,W,1,12,1.0,0.0,M,0.0,M,,*76
$GPGSA,A,3,01,02,03,04,05,06,07,08,09,10,11,12,1.0,1.0,1.0*30
$GPRMC,195046.984,A,4732.311,N,12220.299,W,038.9,328.4,140819,000.0,W*68
$GPGGA,195047.984,4732.321,N,12220.305,W,1,12,1.0,0.0,M,0.0,M,,*70
$GPGSA,A,3,01,02,03,04,05,06,07,08,09,10,11,12,1.0,1.0,1.0*30
$GPRMC,195047.984,A,4732.321,N,12220.305,W,038.9,328.4,140819,000.0,W*6E
$GPGGA,195048.984,4732.331,N,12220.312,W,1,12,1.0,0.0,M,0.0,M,,*78
$GPGSA,A,3,01,02,03,04,05,06,07,08,09,10,11,12,1.0,1.0,1.0*30
$GPRMC,195048.984,A,4732.331,N,12220.312,W,038.9,328.4,140819,000.0,W*66
$GPGGA,195049.984,4732.341,N,12220.318,W,1,12,1.0,0.0,M,0.0,M,,*74
$GPGSA,A,3,01,02,03,04,05,06,07,08,09,10,11,12,1.0,1.0,1.0*30
$GPRMC,195049.984,A,4732.341,N,12220.318,W,038.9,328.4,140819,000.0,W*6A
$GPGGA,195050.984,4732.351,N,12220.324,W,1,12,1.0,0.0,M,0.0,M,,*72
$GPGSA,A,3,01,02,03,04,05,06,07,08,09,10,11,12,1.0,1.0,1.0*30
$GPRMC,195050.984,A,4732.351,N,12220.324,W,038.9,328.4,140819,000.0,W*6C
$GPGGA,195051.984,4732.361,N,12220.330,W,1,12,1.0,0.0,M,0.0,M,,*75
$GPGSA,A,3,01,02,03,04,05,06,07,08,09,10,11,12,1.0,1.0,1.0*30
$GPRMC,195051.984,A,4732.361,N,12220.330,W,038.9,328.4,140819,000.0,W*6B
$GPGGA,195052.984,4732.371,N,12220.336,W,1,12,1.0,0.0,M,0.0,M,,*71
$GPGSA,A,3,01,02,03,04,05,06,07,08,09,10,11,12,1.0,1.0,1.0*30
$GPRMC,195052.984,A,4732.371,N,12220.336,W,038.9,328.4,140819,000.0,W*6F
$GPGGA,195053.984,4732.381,N,12220.342,W,1,12,1.0,0.0,M,0.0,M,,*7C
$GPGSA,A,3,01,02,03,04,05,06,07,08,09,10,11,12,1.0,1.0,1.0*30
$GPRMC,195053.984,A,4732.381,N,12220.342,W,038.9,346.4,140819,000.0,W*6A
$GPGGA,195054.984,4732.391,N,12220.345,W,1,12,1.0,0.0,M,0.0,M,,*7D
$GPGSA,A,3,01,02,03,04,05,06,07,08,09,10,11,12,1.0,1.0,1.0*30
$GPRMC,195054.984,A,4732.391,N,12220.345,W,038.9,346.4,140819,000.0,W*6B
$GPGGA,195055.984,4732.402,N,12220.347,W,1,12,1.0,0.0,M,0.0,M,,*73
$GPGSA,A,3,01,02,03,04,05,06,07,08,09,10,11,12,1.0,1.0,1.0*30
$GPRMC,195055.984,A,4732.402,N,12220.347,W,038.9,346.4,140819,000.0,W*65
$GPGGA,195056.984,4732.413,N,12220.350,W,1,12,1.0,0.0,M,0.0,M,,*76
$GPGSA,A,3,01,02,03,04,05,06,07,08,09,10,11,12,1.0,1.0,1.0*30
$GPRMC,195056.984,A,4732.413,N,12220.350,W,038.9,346.4,140819,000.0,W*60
$GPGGA,195057.984,4732.423,N,12220.353,W,1,12,1.0,0.0,M,0.0,M,,*77
$GPGSA,A,3,01,02,03,04,05,06,07,08,09,10,11,12,1.0,1.0,1.0*30
$GPRMC,195057.984,A,4732.423,N,12220.353,W,038.9,346.4,140819,000.0,W*61
$GPGGA,195058.984,4732.434,N,12220.355,W,1,12,1.0,0.0,M,0.0,M,,*78
$GPGSA,A,3,01,02,03,04,05,06,07,08,09,10,11,12,1.0,1.0,1.0*30
$GPRMC,195058.984,A,4732.434,N,12220.355,W,038.9,346.4,140819,000.0,W*6E
$GPGGA,195059.984,4732.445,N,12220.358,W,1,12,1.0,0.0,M,0.0,M,,*72
$GPGSA,A,3,01,02,03,04,05,06,07,08,09,10,11,12,1.0,1.0,1.0*30
$GPRMC,195059.984,A,4732.445,N,12220.358,W,038.9,346.4,140819,000.0,W*64
$GPGGA,195100.984,4732.455,N,12220.360,W,1,12,1.0,0.0,M,0.0,M,,*75
$GPGSA,A,3,01,02,03,04,05,06,07,08,09,10,11,12,1.0,1.0,1.0*30
$GPRMC,195100.984,A,4732.455,N,12220.360,W,038.9,346.4,140819,000.0,W*63
$GPGGA,195101.984,4732.466,N,12220.363,W,1,12,1.0,0.0,M,0.0,M,,*77
$GPGSA,A,3,01,02,03,04,05,06,07,08,09,10,11,12,1.0,1.0,1.0*30
$GPRMC,195101.984,A,4732.466,N,12220.363,W,038.9,346.4,140819,000.0,W*61
$GPGGA,195102.984,4732.477,N,12220.366,W,1,12,1.0,0.0,M,0.0,M,,*71
$GPGSA,A,3,01,02,03,04,05,06,07,08,09,10,11,12,1.0,1.0,1.0*30
$GPRMC,195102.984,A,4732.477,N,12220.366,W,038.9,346.4,140819,000.0,W*67
$GPGGA,195103.984,4732.487,N,12220.368,W,1,12,1.0,0.0,M,0.0,M,,*71
$GPGSA,A,3,01,02,03,04,05,06,07,08,09,10,11,12,1.0,1.0,1.0*30
$GPRMC,195103.984,A,4732.487,N,12220.368,W,038.9,346.4,140819,000.0,W*67
$GPGGA,195104.984,4732.498,N,12220.371,W,1,12,1.0,0.0,M,0.0,M,,*70
$GPGSA,A,3,01,02,03,04,05,06,07,08,09,10,11,12,1.0,1.0,1.0*30
$GPRMC,195104.984,A,4732.498,N,12220.371,W,038.9,346.4,140819,000.0,W*66
$GPGGA,195105.984,4732.508,N,12220.373,W,1,12,1.0,0.0,M,0.0,M,,*7B
$GPGSA,A,3,01,02,03,04,05,06,07,08,09,10,11,12,1.0,1.0,1.0*30
$GPRMC,195105.984,A,4732.508,N,12220.373,W,038.9,346.4,140819,000.0,W*6D
$GPGGA,195106.984,4732.519,N,12220.376,W,1,12,1.0,0.0,M,0.0,M,,*7D
$GPGSA,A,3,01,02,03,04,05,06,07,08,09,10,11,12,1.0,1.0,1.0*30
$GPRMC,195106.984,A,4732.519,N,12220.376,W,038.9,029.3,140819,000.0,W*66
$GPGGA,195107.984,4732.529,N,12220.370,W,1,12,1.0,0.0,M,0.0,M,,*79
$GPGSA,A,3,01,02,03,04,05,06,07,08,09,10,11,12,1.0,1.0,1.0*30
$GPRMC,195107.984,A,4732.529,N,12220.370,W,038.9,029.3,140819,000.0,W*62
$GPGGA,195108.984,4732.539,N,12220.364,W,1,12,1.0,0.0,M,0.0,M,,*72
$GPGSA,A,3,01,02,03,04,05,06,07,08,09,10,11,12,1.0,1.0,1.0*30
$GPRMC,195108.984,A,4732.539,N,12220.364,W,038.9,029.3,140819,000.0,W*69
$GPGGA,195109.984,4732.549,N,12220.359,W,1,12,1.0,0.0,M,0.0,M,,*7A
$GPGSA,A,3,01,02,03,04,05,06,07,08,09,10,11,12,1.0,1.0,1.0*30
$GPRMC,195109.984,A,4732.549,N,12220.359,W,038.9,029.3,140819,000.0,W*61
$GPGGA,195110.984,4732.559,N,12220.353,W,1,12,1.0,0.0,M,0.0,M,,*79
$GPGSA,A,3,01,02,03,04,05,06,07,08,09,10,11,12,1.0,1.0,1.0*30
$GPRMC,195110.984,A,4732.559,N,12220.353,W,038.9,029.3,140819,000.0,W*62
$GPGGA,195111.984,4732.570,N,12220.347,W,1,12,1.0,0.0,M,0.0,M,,*76
$GPGSA,A,3,01,02,03,04,05,06,07,08,09,10,11,12,1.0,1.0,1.0*30
$GPRMC,195111.984,A,4732.570,N,12220.347,W,038.9,029.3,140819,000.0,W*6D
$GPGGA,195112.984,4732.580,N,12220.342,W,1,12,1.0,0.0,M,0.0,M,,*7F
$GPGSA,A,3,01,02,03,04,05,06,07,08,09,10,11,12,1.0,1.0,1.0*30
$GPRMC,195112.984,A,4732.580,N,12220.342,W,038.9,029.3,140819,000.0,W*64
$GPGGA,195113.984,4732.590,N,12220.336,W,1,12,1.0,0.0,M,0.0,M,,*7C
$GPGSA,A,3,01,02,03,04,05,06,07,08,09,10,11,12,1.0,1.0,1.0*30
$GPRMC,195113.984,A,4732.590,N,12220.336,W,038.9,029.3,140819,000.0,W*67
$GPGGA,195114.984,4732.600,N,12220.330,W,1,12,1.0,0.0,M,0.0,M,,*77
$GPGSA,A,3,01,02,03,04,05,06,07,08,09,10,11,12,1.0,1.0,1.0*30
$GPRMC,195114.984,A,4732.600,N,12220.330,W,038.9,029.3,140819,000.0,W*6C
$GPGGA,195115.984,4732.610,N,12220.325,W,1,12,1.0,0.0,M,0.0,M,,*73
$GPGSA,A,3,01,02,03,04,05,06,07,08,09,10,11,12,1.0,1.0,1.0*30
$GPRMC,195115.984,A,4732.610,N,12220.325,W,038.9,029.3,140819,000.0,W*68
$GPGGA,195116.984,4732.620,N,12220.319,W,1,12,1.0,0.0,M,0.0,M,,*7C
$GPGSA,A,3,01,02,03,04,05,06,07,08,09,10,11,12,1.0,1.0,1.0*30
$GPRMC,195116.984,A,4732.620,N,12220.319,W,038.9,029.3,140819,000.0,W*67
$GPGGA,195117.984,4732.630,N,12220.313,W,1,12,1.0,0.0,M,0.0,M,,*76
$GPGSA,A,3,01,02,03,04,05,06,07,08,09,10,11,12,1.0,1.0,1.0*30
$GPRMC,195117.984,A,4732.630,N,12220.313,W,038.9,029.3,140819,000.0,W*6D
$GPGGA,195118.984,4732.640,N,12220.308,W,1,12,1.0,0.0,M,0.0,M,,*74
$GPGSA,A,3,01,02,03,04,05,06,07,08,09,10,11,12,1.0,1.0,1.0*30
$GPRMC,195118.984,A,4732.640,N,12220.308,W,038.9,029.3,140819,000.0,W*6F
$GPGGA,195119.984,4732.650,N,12220.302,W,1,12,1.0,0.0,M,0.0,M,,*7E
$GPGSA,A,3,01,02,03,04,05,06,07,08,09,10,11,12,1.0,1.0,1.0*30
$GPRMC,195119.984,A,4732.650,N,12220.302,W,038.9,029.3,140819,000.0,W*65
$GPGGA,195120.984,4732.660,N,12220.296,W,1,12,1.0,0.0,M,0.0,M,,*7B
$GPGSA,A,3,01,02,03,04,05,06,07,08,09,10,11,12,1.0,1.0,1.0*30
$GPRMC,195120.984,A,4732.660,N,12220.296,W,038.9,029.3,140819,000.0,W*60
$GPGGA,195121.984,4732.670,N,12220.291,W,1,12,1.0,0.0,M,0.0,M,,*7C
$GPGSA,A,3,01,02,03,04,05,06,07,08,09,10,11,12,1.0,1.0,1.0*30
$GPRMC,195121.984,A,4732.670,N,12220.291,W,038.9,057.5,140819,000.0,W*68
$GPGGA,195122.984,4732.678,N,12220.279,W,1,12,1.0,0.0,M,0.0,M,,*71
$GPGSA,A,3,01,02,03,04,05,06,07,08,09,10,11,12,1.0,1.0,1.0*30
$GPRMC,195122.984,A,4732.678,N,12220.279,W,038.9,057.5,140819,000.0,W*65
$GPGGA,195123.984,4732.685,N,12220.267,W,1,12,1.0,0.0,M,0.0,M,,*7D
$GPGSA,A,3,01,02,03,04,05,06,07,08,09,10,11,12,1.0,1.0,1.0*30
$GPRMC,195123.984,A,4732.685,N,12220.267,W,038.9,057.5,140819,000.0,W*69
$GPGGA,195124.984,4732.693,N,12220.256,W,1,12,1.0,0.0,M,0.0,M,,*7F
$GPGSA,A,3,01,02,03,04,05,06,07,08,09,10,11,12,1.0,1.0,1.0*30
$GPRMC,195124.984,A,4732.693,N,12220.256,W,038.9,057.5,140819,000.0,W*6B
$GPGGA,195125.984,4732.700,N,12220.244,W,1,12,1.0,0.0,M,0.0,M,,*76
$GPGSA,A,3,01,02,03,04,05,06,07,08,09,10,11,12,1.0,1.0,1.0*30
$GPRMC,195125.984,A,4732.700,N,12220.244,W,038.9,057.5,140819,000.0,W*62
$GPGGA,195126.984,4732.707,N,12220.232,W,1,12,1.0,0.0,M,0.0,M,,*73
$GPGSA,A,3,01,02,03,04,05,06,07,08,09,10,11,12,1.0,1.0,1.0*30
$GPRMC,195126.984,A,4732.707,N,12220.232,W,038.9,057.5,140819,000.0,W*67
$GPGGA,195127.984,4732.715,N,12220.221,W,1,12,1.0,0.0,M,0.0,M,,*73
$GPGSA,A,3,01,02,03,04,05,06,07,08,09,10,11,12,1.0,1.0,1.0*30
$GPRMC,195127.984,A,4732.715,N,12220.221,W,038.9,057.5,140819,000.0,W*67
$GPGGA,195128.984,4732.722,N,12220.209,W,1,12,1.0,0.0,M,0.0,M,,*72
$GPGSA,A,3,01,02,03,04,05,06,07,08,09,10,11,12,1.0,1.0,1.0*30
$GPRMC,195128.984,A,4732.722,N,12220.209,W,038.9,057.5,140819,000.0,W*66
$GPGGA,195129.984,4732.730,N,12220.198,W,1,12,1.0,0.0,M,0.0,M,,*7B
$GPGSA,A,3,01,02,03,04,05,06,07,08,09,10,11,12,1.0,1.0,1.0*30
$GPRMC,195129.984,A,4732.730,N,12220.198,W,038.9,057.5,140819,000.0,W*6F
$GPGGA,195130.984,4732.737,N,12220.186,W,1,12,1.0,0.0,M,0.0,M,,*7B
$GPGSA,A,3,01,02,03,04,05,06,07,08,09,10,11,12,1.0,1.0,1.0*30
$GPRMC,195130.984,A,4732.737,N,12220.186,W,038.9,057.5,140819,000.0,W*6F
$GPGGA,195131.984,4732.744,N,12220.174,W,1,12,1.0,0.0,M,0.0,M,,*73
$GPGSA,A,3,01,02,03,04,05,06,07,08,09,10,11,12,1.0,1.0,1.0*30
$GPRMC,195131.984,A,4732.744,N,12220.174,W,038.9,057.5,140819,000.0,W*67
$GPGGA,195132.984,4732.752,N,12220.163,W,1,12,1.0,0.0,M,0.0,M,,*71
$GPGSA,A,3,01,02,03,04,05,06,07,08,09,10,11,12,1.0,1.0,1.0*30
$GPRMC,195132.984,A,4732.752,N,12220.163,W,038.9,057.5,140819,000.0,W*65
$GPGGA,195133.984,4732.759,N,12220.151,W,1,12,1.0,0.0,M,0.0,M,,*7A
$GPGSA,A,3,01,02,03,04,05,06,07,08,09,10,11,12,1.0,1.0,1.0*30
$GPRMC,195133.984,A,4732.759,N,12220.151,W,038.9,057.5,140819,000.0,W*6E
$GPGGA,195134.984,4732.767,N,12220.139,W,1,12,1.0,0.0,M,0.0,M,,*7E
$GPGSA,A,3,01,02,03,04,05,06,07,08,09,10,11,12,1.0,1.0,1.0*30
$GPRMC,195134.984,A,4732.767,N,12220.139,W,038.9,057.5,140819,000.0,W*6A
$GPGGA,195135.984,4732.774,N,12220.128,W,1,12,1.0,0.0,M,0.0,M,,*7D
$GPGSA,A,3,01,02,03,04,05,06,07,08,09,10,11,12,1.0,1.0,1.0*30
$GPRMC,195135.984,A,4732.774,N,12220.128,W,038.9,057.5,140819,000.0,W*69
$GPGGA,195136.984,4732.781,N,12220.116,W,1,12,1.0,0.0,M,0.0,M,,*79
$GPGSA,A,3,01,02,03,04,05,06,07,08,09,10,11,12,1.0,1.0,1.0*30
$GPRMC,195136.984,A,4732.781,N,12220.116,W,038.9,057.5,140819,000.0,W*6D
$GPGGA,195137.984,4732.789,N,12220.104,W,1,12,1.0,0.0,M,0.0,M,,*73
$GPGSA,A,3,01,02,03,04,05,06,07,08,09,10,11,12,1.0,1.0,1.0*30
$GPRMC,195137.984,A,4732.789,N,12220.104,W,038.9,057.5,140819,000.0,W*67
$GPGGA,195138.984,4732.796,N,12220.093,W,1,12,1.0,0.0,M,0.0,M,,*7D
$GPGSA,A,3,01,02,03,04,05,06,07,08,09,10,11,12,1.0,1.0,1.0*30
$GPRMC,195138.984,A,4732.796,N,12220.093,W,038.9,080.8,140819,000.0,W*6E
$GPGGA,195139.984,4732.799,N,12220.077,W,1,12,1.0,0.0,M,0.0,M,,*79
$GPGSA,A,3,01,02,03,04,05,06,07,08,09,10,11,12,1.0,1.0,1.0*30
$GPRMC,195139.984,A,4732.799,N,12220.077,W,038.9,080.8,140819,000.0,W*6A
$GPGGA,195140.984,4732.801,N,12220.062,W,1,12,1.0,0.0,M,0.0,M,,*7D
$GPGSA,A,3,01,02,03,04,05,06,07,08,09,10,11,12,1.0,1.0,1.0*30
$GPRMC,195140.984,A,4732.801,N,12220.062,W,038.9,080.8,140819,000.0,W*6E
$GPGGA,195141.984,4732.804,N,12220.046,W,1,12,1.0,0.0,M,0.0,M,,*7F
$GPGSA,A,3,01,02,03,04,05,06,07,08,09,10,11,12,1.0,1.0,1.0*30
$GPRMC,195141.984,A,4732.804,N,12220.046,W,038.9,080.8,140819,000.0,W*6C
$GPGGA,195142.984,4732.806,N,12220.031,W,1,12,1.0,0.0,M,0.0,M,,*7E
$GPGSA,A,3,01,02,03,04,05,06,07,08,09,10,11,12,1.0,1.0,1.0*30
$GPRMC,195142.984,A,4732.806,N,12220.031,W,038.9,080.8,140819,000.0,W*6D
$GPGGA,195143.984,4732.809,N,12220.015,W,1,12,1.0,0.0,M,0.0,M,,*76
$GPGSA,A,3,01,02,03,04,05,06,07,08,09,10,11,12,1.0,1.0,1.0*30
$GPRMC,195143.984,A,4732.809,N,12220.015,W,038.9,080.8,140819,000.0,W*65
$GPGGA,195144.984,4732.811,N,12220.000,W,1,12,1.0,0.0,M,0.0,M,,*7C
$GPGSA,A,3,01,02,03,04,05,06,07,08,09,10,11,12,1.0,1.0,1.0*30
$GPRMC,195144.984,A,4732.811,N,12220.000,W,038.9,080.8,140819,000.0,W*6F
$GPGGA,195145.984,4732.814,N,12219.984,W,1,12,1.0,0.0,M,0.0,M,,*77
$GPGSA,A,3,01,02,03,04,05,06,07,08,09,10,11,12,1.0,1.0,1.0*30
$GPRMC,195145.984,A,4732.814,N,12219.984,W,038.9,080.8,140819,000.0,W*64
$GPGGA,195146.984,4732.816,N,12219.968,W,1,12,1.0,0.0,M,0.0,M,,*74
$GPGSA,A,3,01,02,03,04,05,06,07,08,09,10,11,12,1.0,1.0,1.0*30
$GPRMC,195146.984,A,4732.816,N,12219.968,W,038.9,080.8,140819,000.0,W*67
$GPGGA,195147.984,4732.819,N,12219.953,W,1,12,1.0,0.0,M,0.0,M,,*72
$GPGSA,A,3,01,02,03,04,05,06,07,08,09,10,11,12,1.0,1.0,1.0*30
$GPRMC,195147.984,A,4732.819,N,12219.953,W,038.9,080.8,140819,000.0,W*61
$GPGGA,195148.984,4732.821,N,12219.937,W,1,12,1.0,0.0,M,0.0,M,,*74
$GPGSA,A,3,01,02,03,04,05,06,07,08,09,10,11,12,1.0,1.0,1.0*30
$GPRMC,195148.984,A,4732.821,N,12219.937,W,038.9,080.8,140819,000.0,W*67
$GPGGA,195149.984,4732.824,N,12219.922,W,1,12,1.0,0.0,M,0.0,M,,*74
$GPGSA,A,3,01,02,03,04,05,06,07,08,09,10,11,12,1.0,1.0,1.0*30
$GPRMC,195149.984,A,4732.824,N,12219.922,W,038.9,080.8,140819,000.0,W*67
$GPGGA,195150.984,4732.826,N,12219.906,W,1,12,1.0,0.0,M,0.0,M,,*78
$GPGSA,A,3,01,02,03,04,05,06,07,08,09,10,11,12,1.0,1.0,1.0*30
$GPRMC,195150.984,A,4732.826,N,12219.906,W,038.9,080.8,140819,000.0,W*6B
$GPGGA,195151.984,4732.829,N,12219.891,W,1,12,1.0,0.0,M,0.0,M,,*79
$GPGSA,A,3,01,02,03,04,05,06,07,08,09,10,11,12,1.0,1.0,1.0*30
$GPRMC,195151.984,A,4732.829,N,12219.891,W,038.9,080.8,140819,000.0,W*6A
$GPGGA,195152.984,4732.831,N,12219.875,W,1,12,1.0,0.0,M,0.0,M,,*79
$GPGSA,A,3,01,02,03,04,05,06,07,08,09,10,11,12,1.0,1.0,1.0*30
$GPRMC,195152.984,A,4732.831,N,12219.875,W,038.9,080.8,140819,000.0,W*6A
$GPGGA,195153.984,4732.834,N,12219.860,W,1,12,1.0,0.0,M,0.0,M,,*79
$GPGSA,A,3,01,02,03,04,05,06,07,08,09,10,11,12,1.0,1.0,1.0*30
$GPRMC,195153.984,A,4732.834,N,12219.860,W,038.9,080.8,140819,000.0,W*6A
$GPGGA,195154.984,4732.836,N,12219.844,W,1,12,1.0,0.0,M,0.0,M,,*7A
$GPGSA,A,3,01,02,03,04,05,06,07,08,09,10,11,12,1.0,1.0,1.0*30
$GPRMC,195154.984,A,4732.836,N,12219.844,W,038.9,080.8,140819,000.0,W*69
$GPGGA,195155.984,4732.839,N,12219.828,W,1,12,1.0,0.0,M,0.0,M,,*7E
$GPGSA,A,3,01,02,03,04,05,06,07,08,09,10,11,12,1.0,1.0,1.0*30
$GPRMC,195155.984,A,4732.839,N,12219.828,W,038.9,112.2,140819,000.0,W*6D
$GPGGA,195156.984,4732.833,N,12219.815,W,1,12,1.0,0.0,M,0.0,M,,*79
$GPGSA,A,3,01,02,03,04,05,06,07,08,09,10,11,12,1.0,1.0,1.0*30
$GPRMC,195156.984,A,4732.833,N,12219.815,W,038.9,112.2,140819,000.0,W*6A
$GPGGA,195157.984,4732.828,N,12219.801,W,1,12,1.0,0.0,M,0.0,M,,*77
$GPGSA,A,3,01,02,03,04,05,06,07,08,09,10,11,12,1.0,1.0,1.0*30
$GPRMC,195157.984,A,4732.828,N,12219.801,W,038.9,112.2,140819,000.0,W*64
$GPGGA,195158.984,4732.822,N,12219.787,W,1,12,1.0,0.0,M,0.0,M,,*73
$GPGSA,A,3,01,02,03,04,05,06,07,08,09,10,11,12,1.0,1.0,1.0*30
$GPRMC,195158.984,A,4732.822,N,12219.787,W,038.9,112.2,140819,000.0,W*60
$GPGGA,195159.984,4732.817,N,12219.774,W,1,12,1.0,0.0,M,0.0,M,,*78
$GPGSA,A,3,01,02,03,04,05,06,07,08,09,10,11,12,1.0,1.0,1.0*30
$GPRMC,195159.984,A,4732.817,N,12219.774,W,038.9,112.2,140819,000.0,W*6B
$GPGGA,195200.984,4732.811,N,12219.760,W,1,12,1.0,0.0,M,0.0,M,,*74
$GPGSA,A,3,01,02,03,04,05,06,07,08,09,10,11,12,1.0,1.0,1.0*30
$GPRMC,195200.984,A,4732.811,N,12219.760,W,038.9,112.2,140819,000.0,W*67
$GPGGA,195201.984,4732.806,N,12219.746,W,1,12,1.0,0.0,M,0.0,M,,*77
$GPGSA,A,3,01,02,03,04,05,06,07,08,09,10,11,12,1.0,1.0,1.0*30
$GPRMC,195201.984,A,4732.806,N,12219.746,W,038.9,112.2,140819,000.0,W*64
$GPGGA,195202.984,4732.800,N,12219.733,W,1,12,1.0,0.0,M,0.0,M,,*70
$GPGSA,A,3,01,02,03,04,05,06,07,08,09,10,11,12,1.0,1.0,1.0*30
$GPRMC,195202.984,A,4732.800,N,12219.733,W,038.9,112.2,140819,000.0,W*63
$GPGGA,195203.984,4732.794,N,12219.719,W,1,12,1.0,0.0,M,0.0,M,,*7B
$GPGSA,A,3,01,02,03,04,05,06,07,08,09,10,11,12,1.0,1.0,1.0*30
$GPRMC,195203.984,A,4732.794,N,12219.719,W,038.9,112.2,140819,000.0,W*68
$GPGGA,195204.984,4732.789,N,12219.705,W,1,12,1.0,0.0,M,0.0,M,,*7D
$GPGSA,A,3,01,02,03,04,05,06,07,08,09,10,11,12,1.0,1.0,1.0*30
$GPRMC,195204.984,A,4732.789,N,12219.705,W,038.9,112.2,140819,000.0,W*6E
$GPGGA,195205.984,4732.783,N,12219.692,W,1,12,1.0,0.0,M,0.0,M,,*79
$GPGSA,A,3,01,02,03,04,05,06,07,08,09,10,11,12,1.0,1.0,1.0*30
$GPRMC,195205.984,A,4732.783,N,12219.692,W,038.9,112.2,140819,000.0,W*6A
$GPGGA,195206.984,4732.778,N,12219.678,W,1,12,1.0,0.0,M,0.0,M,,*7A
$GPGSA,A,3,01,02,03,04,05,06,07,08,09,10,11,12,1.0,1.0,1.0*30
$GPRMC,195206.984,A,4732.778,N,12219.678,W,038.9,112.2,140819,000.0,W*69
$GPGGA,195207.984,4732.772,N,12219.664,W,1,12,1.0,0.0,M,0.0,M,,*7C
$GPGSA,A,3,01,02,03,04,05,06,07,08,09,10,11,12,1.0,1.0,1.0*30
$GPRMC,195207.984,A,4732.772,N,12219.664,W,038.9,112.2,140819,000.0,W*6F
$GPGGA,195208.984,4732.767,N,12219.650,W,1,12,1.0,0.0,M,0.0,M,,*70
$GPGSA,A,3,01,02,03,04,05,06,07,08,09,10,11,12,1.0,1.0,1.0*30
$GPRMC,195208.984,A,4732.767,N,12219.650,W,038.9,112.2,140819,000.0,W*63
$GPGGA,195209.984,4732.761,N,12219.637,W,1,12,1.0,0.0,M,0.0,M,,*76
$GPGSA,A,3,01,02,03,04,05,06,07,08,09,10,11,12,1.0,1.0,1.0*30
$GPRMC,195209.984,A,4732.761,N,12219.637,W,038.9,118.1,140819,000.0,W*6C
$GPGGA,195210.984,4732.754,N,12219.624,W,1,12,1.0,0.0,M,0.0,M,,*7A
$GPGSA,A,3,01,02,03,04,05,06,07,08,09,10,11,12,1.0,1.0,1.0*30
$GPRMC,195210.984,A,4732.754,N,12219.624,W,038.9,118.1,140819,000.0,W*60
$GPGGA,195211.984,4732.748,N,12219.612,W,1,12,1.0,0.0,M,0.0,M,,*73
$GPGSA,A,3,01,02,03,04,05,06,07,08,09,10,11,12,1.0,1.0,1.0*30
$GPRMC,195211.984,A,4732.748,N,12219.612,W,038.9,118.1,140819,000.0,W*69
$GPGGA,195212.984,4732.741,N,12219.599,W,1,12,1.0,0.0,M,0.0,M,,*79
$GPGSA,A,3,01,02,03,04,05,06,07,08,09,10,11,12,1.0,1.0,1.0*30
$GPRMC,195212.984,A,4732.741,N,12219.599,W,038.9,118.1,140819,000.0,W*63
$GPGGA,195213.984,4732.734,N,12219.586,W,1,12,1.0,0.0,M,0.0,M,,*74
$GPGSA,A,3,01,02,03,04,05,06,07,08,09,10,11,12,1.0,1.0,1.0*30
$GPRMC,195213.984,A,4732.734,N,12219.586,W,038.9,118.1,140819,000.0,W*6E
$GPGGA,195214.984,4732.728,N,12219.574,W,1,12,1.0,0.0,M,0.0,M,,*73
$GPGSA,A,3,01,02,03,04,05,06,07,08,09,10,11,12,1.0,1.0,1.0*30
$GPRMC,195214.984,A,4732.728,N,12219.574,W,038.9,118.1,140819,000.0,W*69
$GPGGA,195215.984,4732.721,N,12219.561,W,1,12,1.0,0.0,M,0.0,M,,*7F
$GPGSA,A,3,01,02,03,04,05,06,07,08,09,10,11,12,1.0,1.0,1.0*30
$GPRMC,195215.984,A,4732.721,N,12219.561,W,038.9,118.1,140819,000.0,W*65
$GPGGA,195216.984,4732.714,N,12219.549,W,1,12,1.0,0.0,M,0.0,M,,*70
$GPGSA,A,3,01,02,03,04,05,06,07,08,09,10,11,12,1.0,1.0,1.0*30
$GPRMC,195216.984,A,4732.714,N,12219.549,W,038.9,118.1,140819,000.0,W*6A
$GPGGA,195217.984,4732.708,N,12219.536,W,1,12,1.0,0.0,M,0.0,M,,*74
$GPGSA,A,3,01,02,03,04,05,06,07,08,09,10,11,12,1.0,1.0,1.0*30
$GPRMC,195217.984,A,4732.708,N,12219.536,W,038.9,118.1,140819,000.0,W*6E
$GPGGA,195218.984,4732.701,N,12219.524,W,1,12,1.0,0.0,M,0.0,M,,*71
$GPGSA,A,3,01,02,03,04,05,06,07,08,09,10,11,12,1.0,1.0,1.0*30
$GPRMC,195218.984,A,4732.701,N,12219.524,W,038.9,118.1,140819,000.0,W*6B
$GPGGA,195219.984,4732.694,N,12219.511,W,1,12,1.0,0.0,M,0.0,M,,*7B
$GPGSA,A,3,01,02,03,04,05,06,07,08,09,10,11,12,1.0,1.0,1.0*30
$GPRMC,195219.984,A,4732.694,N,12219.511,W,038.9,118.1,140819,000.0,W*61
$GPGGA,195220.984,4732.688,N,12219.499,W,1,12,1.0,0.0,M,0.0,M,,*7D
$GPGSA,A,3,01,02,03,04,05,06,07,08,09,10,11,12,1.0,1.0,1.0*30
$GPRMC,195220.984,A,4732.688,N,12219.499,W,038.9,118.1,140819,000.0,W*67
$GPGGA,195221.984,4732.681,N,12219.486,W,1,12,1.0,0.0,M,0.0,M,,*7B
$GPGSA,A,3,01,02,03,04,05,06,07,08,09,10,11,12,1.0,1.0,1.0*30
$GPRMC,195221.984,A,4732.681,N,12219.486,W,038.9,118.1,140819,000.0,W*61
$GPGGA,195222.984,4732.674,N,12219.473,W,1,12,1.0,0.0,M,0.0,M,,*78
$GPGSA,A,3,01,02,03,04,05,06,07,08,09,10,11,12,1.0,1.0,1.0*30
$GPRMC,195222.984,A,4732.674,N,12219.473,W,038.9,172.4,140819,000.0,W*6B
$GPGGA,195223.984,4732.664,N,12219.472,W,1,12,1.0,0.0,M,0.0,M,,*79
$GPGSA,A,3,01,02,03,04,05,06,07,08,09,10,11,12,1.0,1.0,1.0*30
$GPRMC,195223.984,A,4732.664,N,12219.472,W,038.9,172.4,140819,000.0,W*6A
$GPGGA,195224.984,4732.653,N,12219.471,W,1,12,1.0,0.0,M,0.0,M,,*79
$GPGSA,A,3,01,02,03,04,05,06,07,08,09,10,11,12,1.0,1.0,1.0*30
$GPRMC,195224.984,A,4732.653,N,12219.471,W,038.9,172.4,140819,000.0,W*6A
$GPGGA,195225.984,4732.642,N,12219.469,W,1,12,1.0,0.0,M,0.0,M,,*71
$GPGSA,A,3,01,02,03,04,05,06,07,08,09,10,11,12,1.0,1.0,1.0*30
$GPRMC,195225.984,A,4732.642,N,12219.469,W,038.9,172.4,140819,000.0,W*62
$GPGGA,195226.984,4732.631,N,12219.468,W,1,12,1.0,0.0,M,0.0,M,,*77
$GPGSA,A,3,01,02,03,04,05,06,07,08,09,10,11,12,1.0,1.0,1.0*30
$GPRMC,195226.984,A,4732.631,N,12219.468,W,038.9,172.4,140819,000.0,W*64
$GPGGA,195227.984,4732.621,N,12219.466,W,1,12,1.0,0.0,M,0.0,M,,*79
$GPGSA,A,3,01,02,03,04,05,06,07,08,09,10,11,12,1.0,1.0,1.0*30
$GPRMC,195227.984,A,4732.621,N,12219.466,W,038.9,172.4,140819,000.0,W*6A
$GPGGA,195228.984,4732.610,N,12219.465,W,1,12,1.0,0.0,M,0.0,M,,*77
$GPGSA,A,3,01,02,03,04,05,06,07,08,09,10,11,12,1.0,1.0,1.0*30
$GPRMC,195228.984,A,4732.610,N,12219.465,W,038.9,172.4,140819,000.0,W*64
$GPGGA,195229.984,4732.599,N,12219.463,W,1,12,1.0,0.0,M,0.0,M,,*72
$GPGSA,A,3,01,02,03,04,05,06,07,08,09,10,11,12,1.0,1.0,1.0*30
$GPRMC,195229.984,A,4732.599,N,12219.463,W,038.9,172.4,140819,000.0,W*61
$GPGGA,195230.984,4732.588,N,12219.462,W,1,12,1.0,0.0,M,0.0,M,,*7B
$GPGSA,A,3,01,02,03,04,05,06,07,08,09,10,11,12,1.0,1.0,1.0*30
$GPRMC,195230.984,A,4732.588,N,12219.462,W,038.9,161.0,140819,000.0,W*6E
$GPGGA,195231.984,4732.578,N,12219.458,W,1,12,1.0,0.0,M,0.0,M,,*7C
$GPGSA,A,3,01,02,03,04,05,06,07,08,09,10,11,12,1.0,1.0,1.0*30
$GPRMC,195231.984,A,4732.578,N,12219.458,W,038.9,161.0,140819,000.0,W*69
$GPGGA,195232.984,4732.567,N,12219.455,W,1,12,1.0,0.0,M,0.0,M,,*7C
$GPGSA,A,3,01,02,03,04,05,06,07,08,09,10,11,12,1.0,1.0,1.0*30
$GPRMC,195232.984,A,4732.567,N,12219.455,W,038.9,161.0,140819,000.0,W*69
$GPGGA,195233.984,4732.557,N,12219.451,W,1,12,1.0,0.0,M,0.0,M,,*7A
$GPGSA,A,3,01,02,03,04,05,06,07,08,09,10,11,12,1.0,1.0,1.0*30
$GPRMC,195233.984,A,4732.557,N,12219.451,W,038.9,161.0,140819,000.0,W*6F
$GPGGA,195234.984,4732.546,N,12219.447,W,1,12,1.0,0.0,M,0.0,M,,*7A
$GPGSA,A,3,01,02,03,04,05,06,07,08,09,10,11,12,1.0,1.0,1.0*30
$GPRMC,195234.984,A,4732.546,N,12219.447,W,038.9,161.0,140819,000.0,W*6F
$GPGGA,195235.984,4732.536,N,12219.444,W,1,12,1.0,0.0,M,0.0,M,,*7F
$GPGSA,A,3,01,02,03,04,05,06,07,08,09,10,11,12,1.0,1.0,1.0*30
$GPRMC,195235.984,A,4732.536,N,12219.444,W,038.9,161.0,140819,000.0,W*6A
$GPGGA,195236.984,4732.525,N,12219.440,W,1,12,1.0,0.0,M,0.0,M,,*7A
$GPGSA,A,3,01,02,03,04,05,06,07,08,09,10,11,12,1.0,1.0,1.0*30
$GPRMC,195236.984,A,4732.525,N,12219.440,W,038.9,161.0,140819,000.0,W*6F
$GPGGA,195237.984,4732.515,N,12219.436,W,1,12,1.0,0.0,M,0.0,M,,*79
$GPGSA,A,3,01,02,03,04,05,06,07,08,09,10,11,12,1.0,1.0,1.0*30
$GPRMC,195237.984,A,4732.515,N,12219.436,W,038.9,161.0,140819,000.0,W*6C
$GPGGA,195238.984,4732.504,N,12219.433,W,1,12,1.0,0.0,M,0.0,M,,*73
$GPGSA,A,3,01,02,03,04,05,06,07,08,09,10,11,12,1.0,1.0,1.0*30
$GPRMC,195238.984,A,4732.504,N,12219.433,W,038.9,161.0,140819,000.0,W*66
$GPGGA,195239.984,4732.494,N,12219.429,W,1,12,1.0,0.0,M,0.0,M,,*71
$GPGSA,A,3,01,02,03,04,05,06,07,08,09,10,11,12,1.0,1.0,1.0*30
$GPRMC,195239.984,A,4732.494,N,12219.429,W,038.9,161.0,140819,000.0,W*64
$GPGGA,195240.984,4732.483,N,12219.426,W,1,12,1.0,0.0,M,0.0,M,,*76
$GPGSA,A,3,01,02,03,04,05,06,07,08,09,10,11,12,1.0,1.0,1.0*30
$GPRMC,195240.984,A,4732.483,N,12219.426,W,038.9,161.0,140819,000.0,W*63
$GPGGA,195241.984,4732.473,N,12219.422,W,1,12,1.0,0.0,M,0.0,M,,*7C
$GPGSA,A,3,01,02,03,04,05,06,07,08,09,10,11,12,1.0,1.0,1.0*30
$GPRMC,195241.984,A,4732.473,N,12219.422,W,038.9,161.0,140819,000.0,W*69
$GPGGA,195242.984,4732.462,N,12219.418,W,1,12,1.0,0.0,M,0.0,M,,*76
$GPGSA,A,3,01,02,03,04,05,06,07,08,09,10,11,12,1.0,1.0,1.0*30
$GPRMC,195242.984,A,4732.462,N,12219.418,W,038.9,161.0,140819,000.0,W*63
$GPGGA,195243.984,4732.452,N,12219.415,W,1,12,1.0,0.0,M,0.0,M,,*79
$GPGSA,A,3,01,02,03,04,05,06,07,08,09,10,11,12,1.0,1.0,1.0*30
$GPRMC,195243.984,A,4732.452,N,12219.415,W,038.9,161.0,140819,000.0,W*6C
$GPGGA,195244.984,4732.441,N,12219.411,W,1,12,1.0,0.0,M,0.0,M,,*78
$GPGSA,A,3,01,02,03,04,05,06,07,08,09,10,11,12,1.0,1.0,1.0*30
$GPRMC,195244.984,A,4732.441,N,12219.411,W,038.9,203.3,140819,000.0,W*69
$GPGGA,195245.984,4732.431,N,12219.416,W,1,12,1.0,0.0,M,0.0,M,,*79
$GPGSA,A,3,01,02,03,04,05,06,07,08,09,10,11,12,1.0,1.0,1.0*30
$GPRMC,195245.984,A,4732.431,N,12219.416,W,038.9,203.3,140819,000.0,W*68
$GPGGA,195246.984,4732.420,N,12219.420,W,1,12,1.0,0.0,M,0.0,M,,*7F
$GPGSA,A,3,01,02,03,04,05,06,07,08,09,10,11,12,1.0,1.0,1.0*30
$GPRMC,195246.984,A,4732.420,N,12219.420,W,038.9,203.3,140819,000.0,W*6E
$GPGGA,195247.984,4732.410,N,12219.425,W,1,12,1.0,0.0,M,0.0,M,,*78
$GPGSA,A,3,01,02,03,04,05,06,07,08,09,10,11,12,1.0,1.0,1.0*30
$GPRMC,195247.984,A,4732.410,N,12219.425,W,038.9,203.3,140819,000.0,W*69
$GPGGA,195248.984,4732.400,N,12219.429,W,1,12,1.0,0.0,M,0.0,M,,*7A
$GPGSA,A,3,01,02,03,04,05,06,07,08,09,10,11,12,1.0,1.0,1.0*30
$GPRMC,195248.984,A,4732.400,N,12219.429,W,038.9,203.3,140819,000.0,W*6B
$GPGGA,195249.984,4732.389,N,12219.434,W,1,12,1.0,0.0,M,0.0,M,,*71
$GPGSA,A,3,01,02,03,04,05,06,07,08,09,10,11,12,1.0,1.0,1.0*30
$GPRMC,195249.984,A,4732.389,N,12219.434,W,038.9,203.3,140819,000.0,W*60
$GPGGA,195250.984,4732.379,N,12219.438,W,1,12,1.0,0.0,M,0.0,M,,*7A
$GPGSA,A,3,01,02,03,04,05,06,07,08,09,10,11,12,1.0,1.0,1.0*30
$GPRMC,195250.984,A,4732.379,N,12219.438,W,038.9,203.3,140819,000.0,W*6B
$GPGGA,195251.984,4732.369,N,12219.443,W,1,12,1.0,0.0,M,0.0,M,,*76
$GPGSA,A,3,01,02,03,04,05,06,07,08,09,10,11,12,1.0,1.0,1.0*30
$GPRMC,195251.984,A,4732.369,N,12219.443,W,038.9,203.3,140819,000.0,W*67
$GPGGA,195252.984,4732.358,N,12219.447,W,1,12,1.0,0.0,M,0.0,M,,*73
$GPGSA,A,3,01,02,03,04,05,06,07,08,09,10,11,12,1.0,1.0,1.0*30
$GPRMC,195252.984,A,4732.358,N,12219.447,W,038.9,203.3,140819,000.0,W*62
$GPGGA,195253.984,4732.348,N,12219.451,W,1,12,1.0,0.0,M,0.0,M,,*74
$GPGSA,A,3,01,02,03,04,05,06,07,08,09,10,11,12,1.0,1.0,1.0*30
$GPRMC,195253.984,A,4732.348,N,12219.451,W,038.9,203.3,140819,000.0,W*65
$GPGGA,195254.984,4732.338,N,12219.456,W,1,12,1.0,0.0,M,0.0,M,,*73
$GPGSA,A,3,01,02,03,04,05,06,07,08,09,10,11,12,1.0,1.0,1.0*30
$GPRMC,195254.984,A,4732.338,N,12219.456,W,038.9,203.3,140819,000.0,W*62
$GPGGA,195255.984,4732.327,N,12219.460,W,1,12,1.0,0.0,M,0.0,M,,*79
$GPGSA,A,3,01,02,03,04,05,06,07,08,09,10,11,12,1.0,1.0,1.0*30
$GPRMC,195255.984,A,4732.327,N,12219.460,W,038.9,235.6,140819,000.0,W*68
$GPGGA,195256.984,4732.320,N,12219.472,W,1,12,1.0,0.0,M,0.0,M,,*7E
$GPGSA,A,3,01,02,03,04,05,06,07,08,09,10,11,12,1.0,1.0,1.0*30
$GPRMC,195256.984,A,4732.320,N,12219.472,W,038.9,235.6,140819,000.0,W*6F
$GPGGA,195257.984,4732.312,N,12219.483,W,1,12,1.0,0.0,M,0.0,M,,*70
$GPGSA,A,3,01,02,03,04,05,06,07,08,09,10,11,12,1.0,1.0,1.0*30
$GPRMC,195257.984,A,4732.312,N,12219.483,W,038.9,235.6,140819,000.0,W*61
$GPGGA,195258.984,4732.304,N,12219.494,W,1,12,1.0,0.0,M,0.0,M,,*7E
$GPGSA,A,3,01,02,03,04,05,06,07,08,09,10,11,12,1.0,1.0,1.0*30
$GPRMC,195258.984,A,4732.304,N,12219.494,W,038.9,235.6,140819,000.0,W*6F
$GPGGA,195259.984,4732.296,N,12219.505,W,1,12,1.0,0.0,M,0.0,M,,*7C
$GPGSA,A,3,01,02,03,04,05,06,07,08,09,10,11,12,1.0,1.0,1.0*30
$GPRMC,195259.984,A,4732.296,N,12219.505,W,038.9,235.6,140819,000.0,W*6D
$GPGGA,195300.984,4732.289,N,12219.517,W,1,12,1.0,0.0,M,0.0,M,,*7C
$GPGSA,A,3,01,02,03,04,05,06,07,08,09,10,11,12,1.0,1.0,1.0*30
$GPRMC,195300.984,A,4732.289,N,12219.517,W,038.9,235.6,140819,000.0,W*6D
$GPGGA,195301.984,4732.281,N,12219.528,W,1,12,1.0,0.0,M,0.0,M,,*79
$GPGSA,A,3,01,02,03,04,05,06,07,08,09,10,11,12,1.0,1.0,1.0*30
$GPRMC,195301.984,A,4732.281,N,12219.528,W,038.9,235.6,140819,000.0,W*68
$GPGGA,195302.984,4732.273,N,12219.539,W,1,12,1.0,0.0,M,0.0,M,,*77
$GPGSA,A,3,01,02,03,04,05,06,07,08,09,10,11,12,1.0,1.0,1.0*30
$GPRMC,195302.984,A,4732.273,N,12219.539,W,038.9,235.6,140819,000.0,W*66
$GPGGA,195303.984,4732.266,N,12219.550,W,1,12,1.0,0.0,M,0.0,M,,*7D
$GPGSA,A,3,01,02,03,04,05,06,07,08,09,10,11,12,1.0,1.0,1.0*30
$GPRMC,195303.984,A,4732.266,N,12219.550,W,038.9,235.6,140819,000.0,W*6C
$GPGGA,195304.984,4732.258,N,12219.562,W,1,12,1.0,0.0,M,0.0,M,,*76
$GPGSA,A,3,01,02,03,04,05,06,07,08,09,10,11,12,1.0,1.0,1.0*30
$GPRMC,195304.984,A,4732.258,N,12219.562,W,038.9,235.6,140819,000.0,W*67
$GPGGA,195305.984,4732.250,N,12219.573,W,1,12,1.0,0.0,M,0.0,M,,*7F
$GPGSA,A,3,01,02,03,04,05,06,07,08,09,10,11,12,1.0,1.0,1.0*30
$GPRMC,195305.984,A,4732.250,N,12219.573,W,038.9,235.6,140819,000.0,W*6E
$GPGGA,195306.984,4732.243,N,12219.584,W,1,12,1.0,0.0,M,0.0,M,,*76
$GPGSA,A,3,01,02,03,04,05,06,07,08,09,10,11,12,1.0,1.0,1.0*30
$GPRMC,195306.984,A,4732.243,N,12219.584,W,038.9,240.8,140819,000.0,W*6B
$GPGGA,195307.984,4732.236,N,12219.596,W,1,12,1.0,0.0,M,0.0,M,,*76
$GPGSA,A,3,01,02,03,04,05,06,07,08,09,10,11,12,1.0,1.0,1.0*30
$GPRMC,195307.984,A,4732.236,N,12219.596,W,038.9,240.8,140819,000.0,W*6B
$GPGGA,195308.984,4732.229,N,12219.609,W,1,12,1.0,0.0,M,0.0,M,,*72
$GPGSA,A,3,01,02,03,04,05,06,07,08,09,10,11,12,1.0,1.0,1.0*30
$GPRMC,195308.984,A,4732.229,N,12219.609,W,038.9,240.8,140819,000.0,W*6F
$GPGGA,195309.984,4732.222,N,12219.621,W,1,12,1.0,0.0,M,0.0,M,,*72
$GPGSA,A,3,01,02,03,04,05,06,07,08,09,10,11,12,1.0,1.0,1.0*30
$GPRMC,195309.984,A,4732.222,N,12219.621,W,038.9,240.8,140819,000.0,W*6F
$GPGGA,195310.984,4732.215,N,12219.633,W,1,12,1.0,0.0,M,0.0,M,,*7D
$GPGSA,A,3,01,02,03,04,05,06,07,08,09,10,11,12,1.0,1.0,1.0*30
$GPRMC,195310.984,A,4732.215,N,12219.633,W,038.9,240.8,140819,000.0,W*60
$GPGGA,195311.984,4732.208,N,12219.646,W,1,12,1.0,0.0,M,0.0,M,,*72
$GPGSA,A,3,01,02,03,04,05,06,07,08,09,10,11,12,1.0,1.0,1.0*30
$GPRMC,195311.984,A,4732.208,N,12219.646,W,038.9,240.8,140819,000.0,W*6F
$GPGGA,195312.984,4732.202,N,12219.658,W,1,12,1.0,0.0,M,0.0,M,,*74
$GPGSA,A,3,01,02,03,04,05,06,07,08,09,10,11,12,1.0,1.0,1.0*30
$GPRMC,195312.984,A,4732.202,N,12219.658,W,038.9,240.8,140819,000.0,W*69
$GPGGA,195313.984,4732.195,N,12219.670,W,1,12,1.0,0.0,M,0.0,M,,*72
$GPGSA,A,3,01,02,03,04,05,06,07,08,09,10,11,12,1.0,1.0,1.0*30
$GPRMC,195313.984,A,4732.195,N,12219.670,W,038.9,240.8,140819,000.0,W*6F
$GPGGA,195314.984,4732.188,N,12219.683,W,1,12,1.0,0.0,M,0.0,M,,*75
$GPGSA,A,3,01,02,03,04,05,06,07,08,09,10,11,12,1.0,1.0,1.0*30
$GPRMC,195314.984,A,4732.188,N,12219.683,W,038.9,240.8,140819,000.0,W*68
$GPGGA,195315.984,4732.181,N,12219.695,W,1,12,1.0,0.0,M,0.0,M,,*7A
$GPGSA,A,3,01,02,03,04,05,06,07,08,09,10,11,12,1.0,1.0,1.0*30
$GPRMC,195315.984,A,4732.181,N,12219.695,W,038.9,240.8,140819,000.0,W*67
$GPGGA,195316.984,4732.174,N,12219.707,W,1,12,1.0,0.0,M,0.0,M,,*79
$GPGSA,A,3,01,02,03,04,05,06,07,08,09,10,11,12,1.0,1.0,1.0*30
$GPRMC,195316.984,A,4732.174,N,12219.707,W,038.9,240.8,140819,000.0,W*64
$GPGGA,195317.984,4732.167,N,12219.720,W,1,12,1.0,0.0,M,0.0,M,,*7F
$GPGSA,A,3,01,02,03,04,05,06,07,08,09,10,11,12,1.0,1.0,1.0*30
$GPRMC,195317.984,A,4732.167,N,12219.720,W,038.9,240.8,140819,000.0,W*62
$GPGGA,195318.984,4732.160,N,12219.732,W,1,12,1.0,0.0,M,0.0,M,,*74
$GPGSA,A,3,01,02,03,04,05,06,07,08,09,10,11,12,1.0,1.0,1.0*30
$GPRMC,195318.984,A,4732.160,N,12219.732,W,038.9,240.8,140819,000.0,W*69
$GPGGA,195319.984,4732.153,N,12219.744,W,1,12,1.0,0.0,M,0.0,M,,*74
$GPGSA,A,3,01,02,03,04,05,06,07,08,09,10,11,12,1.0,1.0,1.0*30
$GPRMC,195319.984,A,4732.153,N,12219.744,W,038.9,240.8,140819,000.0,W*69
$GPGGA,195320.984,4732.147,N,12219.757,W,1,12,1.0,0.0,M,0.0,M,,*79
$GPGSA,A,3,01,02,03,04,05,06,07,08,09,10,11,12,1.0,1.0,1.0*30
$GPRMC,195320.984,A,4732.147,N,12219.757,W,038.9,257.7,140819,000.0,W*6D
$GPGGA,195321.984,4732.143,N,12219.772,W,1,12,1.0,0.0,M,0.0,M,,*7B
$GPGSA,A,3,01,02,03,04,05,06,07,08,09,10,11,12,1.0,1.0,1.0*30
$GPRMC,195321.984,A,4732.143,N,12219.772,W,038.9,257.7,140819,000.0,W*6F
$GPGGA,195322.984,4732.140,N,12219.787,W,1,12,1.0,0.0,M,0.0,M,,*71
$GPGSA,A,3,01,02,03,04,05,06,07,08,09,10,11,12,1.0,1.0,1.0*30
$GPRMC,195322.984,A,4732.140,N,12219.787,W,038.9,257.7,140819,000.0,W*65
$GPGGA,195323.984,4732.137,N,12219.802,W,1,12,1.0,0.0,M,0.0,M,,*72
$GPGSA,A,3,01,02,03,04,05,06,07,08,09,10,11,12,1.0,1.0,1.0*30
$GPRMC,195323.984,A,4732.137,N,12219.802,W,038.9,257.7,140819,000.0,W*66
$GPGGA,195324.984,4732.133,N,12219.817,W,1,12,1.0,0.0,M,0.0,M,,*75
$GPGSA,A,3,01,02,03,04,05,06,07,08,09,10,11,12,1.0,1.0,1.0*30
$GPRMC,195324.984,A,4732.133,N,12219.817,W,038.9,257.7,140819,000.0,W*61
$GPGGA,195325.984,4732.130,N,12219.833,W,1,12,1.0,0.0,M,0.0,M,,*71
$GPGSA,A,3,01,02,03,04,05,06,07,08,09,10,11,12,1.0,1.0,1.0*30
$GPRMC,195325.984,A,4732.130,N,12219.833,W,038.9,257.7,140819,000.0,W*65
$GPGGA,195326.984,4732.127,N,12219.848,W,1,12,1.0,0.0,M,0.0,M,,*78
$GPGSA,A,3,01,02,03,04,05,06,07,08,09,10,11,12,1.0,1.0,1.0*30
$GPRMC,195326.984,A,4732.127,N,12219.848,W,038.9,257.7,140819,000.0,W*6C
$GPGGA,195327.984,4732.123,N,12219.863,W,1,12,1.0,0.0,M,0.0,M,,*74
$GPGSA,A,3,01,02,03,04,05,06,07,08,09,10,11,12,1.0,1.0,1.0*30
$GPRMC,195327.984,A,4732.123,N,12219.863,W,038.9,257.7,140819,000.0,W*60
$GPGGA,195328.984,4732.120,N,12219.878,W,1,12,1.0,0.0,M,0.0,M,,*72
$GPGSA,A,3,01,02,03,04,05,06,07,08,09,10,11,12,1.0,1.0,1.0*30
$GPRMC,195328.984,A,4732.120,N,12219.878,W,038.9,257.7,140819,000.0,W*66
$GPGGA,195329.984,4732.117,N,12219.894,W,1,12,1.0,0.0,M,0.0,M,,*75
$GPGSA,A,3,01,02,03,04,05,06,07,08,09,10,11,12,1.0,1.0,1.0*30
$GPRMC,195329.984,A,4732.117,N,12219.894,W,038.9,257.7,140819,000.0,W*61
$GPGGA,195330.984,4732.113,N,12219.909,W,1,12,1.0,0.0,M,0.0,M,,*7C
$GPGSA,A,3,01,02,03,04,05,06,07,08,09,10,11,12,1.0,1.0,1.0*30
$GPRMC,195330.984,A,4732.113,N,12219.909,W,038.9,257.7,140819,000.0,W*68
$GPGGA,195331.984,4732.110,N,12219.924,W,1,12,1.0,0.0,M,0.0,M,,*71
$GPGSA,A,3,01,02,03,04,05,06,07,08,09,10,11,12,1.0,1.0,1.0*30
$GPRMC,195331.984,A,4732.110,N,12219.924,W,038.9,289.8,140819,000.0,W*69
$GPGGA,195332.984,4732.115,N,12219.938,W,1,12,1.0,0.0,M,0.0,M,,*7A
$GPGSA,A,3,01,02,03,04,05,06,07,08,09,10,11,12,1.0,1.0,1.0*30
$GPRMC,195332.984,A,4732.115,N,12219.938,W,038.9,289.8,140819,000.0,W*62
$GPGGA,195333.984,4732.120,N,12219.952,W,1,12,1.0,0.0,M,0.0,M,,*71
$GPGSA,A,3,01,02,03,04,05,06,07,08,09,10,11,12,1.0,1.0,1.0*30
$GPRMC,195333.984,A,4732.120,N,12219.952,W,038.9,289.8,140819,000.0,W*69
$GPGGA,195334.984,4732.125,N,12219.966,W,1,12,1.0,0.0,M,0.0,M,,*74
$GPGSA,A,3,01,02,03,04,05,06,07,08,09,10,11,12,1.0,1.0,1.0*30
$GPRMC,195334.984,A,4732.125,N,12219.966,W,038.9,289.8,140819,000.0,W*6C
$GPGGA,195335.984,4732.130,N,12219.980,W,1,12,1.0,0.0,M,0.0,M,,*79
$GPGSA,A,3,01,02,03,04,05,06,07,08,09,10,11,12,1.0,1.0,1.0*30
$GPRMC,195335.984,A,4732.130,N,12219.980,W,038.9,289.8,140819,000.0,W*61
$GPGGA,195336.984,4732.136,N,12219.995,W,1,12,1.0,0.0,M,0.0,M,,*78
$GPGSA,A,3,01,02,03,04,05,06,07,08,09,10,11,12,1.0,1.0,1.0*30
$GPRMC,195336.984,A,4732.136,N,12219.995,W,038.9,289.8,140819,000.0,W*60
$GPGGA,195337.984,4732.141,N,12220.009,W,1,12,1.0,0.0,M,0.0,M,,*7F
$GPGSA,A,3,01,02,03,04,05,06,07,08,09,10,11,12,1.0,1.0,1.0*30
$GPRMC,195337.984,A,4732.141,N,12220.009,W,038.9,289.8,140819,000.0,W*67
$GPGGA,195338.984,4732.146,N,12220.023,W,1,12,1.0,0.0,M,0.0,M,,*7F
$GPGSA,A,3,01,02,03,04,05,06,07,08,09,10,11,12,1.0,1.0,1.0*30
$GPRMC,195338.984,A,4732.146,N,12220.023,W,038.9,289.8,140819,000.0,W*67
$GPGGA,195339.984,4732.151,N,12220.037,W,1,12,1.0,0.0,M,0.0,M,,*7D
$GPGSA,A,3,01,02,03,04,05,06,07,08,09,10,11,12,1.0,1.0,1.0*30
$GPRMC,195339.984,A,4732.151,N,12220.037,W,038.9,289.8,140819,000.0,W*65
$GPGGA,195340.984,4732.156,N,12220.051,W,1,12,1.0,0.0,M,0.0,M,,*74
$GPGSA,A,3,01,02,03,04,05,06,07,08,09,10,11,12,1.0,1.0,1.0*30
$GPRMC,195340.984,A,4732.156,N,12220.051,W,038.9,289.8,140819,000.0,W*6C
$GPGGA,195341.984,4732.161,N,12220.065,W,1,12,1.0,0.0,M,0.0,M,,*76
$GPGSA,A,3,01,02,03,04,05,06,07,08,09,10,11,12,1.0,1.0,1.0*30
$GPRMC,195341.984,A,4732.161,N,12220.065,W,038.9,289.8,140819,000.0,W*6E
$GPGGA,195342.984,4732.166,N,12220.079,W,1,12,1.0,0.0,M,0.0,M,,*7F
$GPGSA,A,3,01,02,03,04,05,06,07,08,09,10,11,12,1.0,1.0,1.0*30
$GPRMC,195342.984,A,4732.166,N,12220.079,W,038.9,289.8,140819,000.0,W*67
$GPGGA,195343.984,4732.171,N,12220.093,W,1,12,1.0,0.0,M,0.0,M,,*7C
$GPGSA,A,3,01,02,03,04,05,06,07,08,09,10,11,12,1.0,1.0,1.0*30
$GPRMC,195343.984,A,4732.171,N,12220.093,W,038.9,289.8,140819,000.0,W*64
$GPGGA,195344.984,4732.176,N,12220.107,W,1,12,1.0,0.0,M,0.0,M,,*70
$GPGSA,A,3,01,02,03,04,05,06,07,08,09,10,11,12,1.0,1.0,1.0*30
$GPRMC,195344.984,A,4732.176,N,12220.107,W,038.9,289.8,140819,000.0,W*68
$GPGGA,195345.984,4732.181,N,12220.122,W,1,12,1.0,0.0,M,0.0,M,,*7E
$GPGSA,A,3,01,02,03,04,05,06,07,08,09,10,11,12,1.0,1.0,1.0*30
$GPRMC,195345.984,A,4732.181,N,12220.122,W,038.9,289.8,140819,000.0,W*66
$GPGGA,195346.984,4732.186,N,12220.136,W,1,12,1.0,0.0,M,0.0,M,,*7F
$GPGSA,A,3,01,02,03,04,05,06,07,08,09,10,11,12,1.0,1.0,1.0*30
$GPRMC,195346.984,A,4732.186,N,12220.136,W,038.9,289.8,140819,000.0,W*67
$GPGGA,195347.984,4732.191,N,12220.150,W,1,12,1.0,0.0,M,0.0,M,,*78
$GPGSA,A,3,01,02,03,04,05,06,07,08,09,10,11,12,1.0,1.0,1.0*30
$GPRMC,195347.984,A,4732.191,N,12220.150,W,038.9,289.8,140819,000.0,W*60
$GPGGA,195348.984,4732.196,N,12220.164,W,1,12,1.0,0.0,M,0.0,M,,*77
$GPGSA,A,3,01,02,03,04,05,06,07,08,09,10,11,12,1.0,1.0,1.0*30
$GPRMC,195348.984,A,4732.196,N,12220.164,W,038.9,289.8,140819,000.0,W*6F
$GPGGA,195349.984,4732.201,N,12220.178,W,1,12,1.0,0.0,M,0.0,M,,*76
$GPGSA,A,3,01,02,03,04,05,06,07,08,09,10,11,12,1.0,1.0,1.0*30
$GPRMC,195349.984,A,4732.201,N,12220.178,W,038.9,289.8,140819,000.0,W*6E
$GPGGA,195350.984,4732.207,N,12220.192,W,1,12,1.0,0.0,M,0.0,M,,*7C
$GPGSA,A,3,01,02,03,04,05,06,07,08,09,10,11,12,1.0,1.0,1.0*30
$GPRMC,195350.984,A,4732.207,N,12220.192,W,038.9,289.8,140819,000.0,W*64
$GPGGA,195351.984,4732.212,N,12220.206,W,1,12,1.0,0.0,M,0.0,M,,*77
$GPGSA,A,3,01,02,03,04,05,06,07,08,09,10,11,12,1.0,1.0,1.0*30
$GPRMC,195351.984,A,4732.212,N,12220.206,W,038.9,289.8,140819,000.0,W*6F
$GPGGA,195352.984,4732.217,N,12220.220,W,1,12,1.0,0.0,M,0.0,M,,*75
$GPGSA,A,3,01,02,03,04,05,06,07,08,09,10,11,12,1.0,1.0,1.0*30
$GPRMC,195352.984,A,4732.217,N,12220.220,W,038.9,289.8,140819,000.0,W*6D
$GPGGA,195353.984,4732.222,N,12220.234,W,1,12,1.0,0.0,M,0.0,M,,*77
$GPGSA,A,3,01,02,03,04,05,06,07,08,09,10,11,12,1.0,1.0,1.0*30
$GPRMC,195353.984,A,4732.222,N,12220.234,W,038.9,289.8,140819,000.0,W*6F
$GPGGA,195354.984,4732.227,N,12220.249,W,1,12,1.0,0.0,M,0.0,M,,*7F
$GPGSA,A,3,01,02,03,04,05,06,07,08,09,10,11,12,1.0,1.0,1.0*30
$GPRMC,195354.984,A,4732.227,N,12220.249,W,038.9,289.8,140819,000.0,W*67
$GPGGA,195355.984,4732.232,N,12220.263,W,1,12,1.0,0.0,M,0.0,M,,*72
$GPGSA,A,3,01,02,03,04,05,06,07,08,09,10,11,12,1.0,1.0,1.0*30
$GPRMC,195355.984,A,4732.232,N,12220.263,W,038.9,289.8,140819,000.0,W*6A
$GPGGA,195356.984,4732.237,N,12220.277,W,1,12,1.0,0.0,M,0.0,M,,*71
$GPGSA,A,3,01,02,03,04,05,06,07,08,09,10,11,12,1.0,1.0,1.0*30
$GPRMC,195356.984,A,4732.237,N,12220.277,W,038.9,289.8,140819,000.0,W*69
$GPGGA,195357.984,4732.242,N,12220.291,W,1,12,1.0,0.0,M,0.0,M,,*7A
$GPGSA,A,3,01,02,03,04,05,06,07,08,09,10,11,12,1.0,1.0,1.0*30
$GPRMC,195357.984,A,4732.242,N,12220.291,W,038.9,289.8,140819,000.0,W*62
$GPGGA,195358.984,4732.247,N,12220.305,W,1,12,1.0,0.0,M,0.0,M,,*7C
$GPGSA,A,3,01,02,03,04,05,06,07,08,09,10,11,12,1.0,1.0,1.0*30
$GPRMC,195358.984,A,4732.247,N,12220.305,W,038.9,289.8,140819,000.0,W*64
$GPGGA,195359.984,4732.252,N,12220.319,W,1,12,1.0,0.0,M,0.0,M,,*74
$GPGSA,A,3,01,02,03,04,05,06,07,08,09,10,11,12,1.0,1.0,1.0*30
$GPRMC,195359.984,A,4732.252,N,12220.319,W,038.9,289.8,140819,000.0,W*6C
$GPGGA,195400.984,4732.257,N,12220.333,W,1,12,1.0,0.0,M,0.0,M,,*72
$GPGSA,A,3,01,02,03,04,05,06,07,08,09,10,11,12,1.0,1.0,1.0*30
$GPRMC,195400.984,A,4732.257,N,12220.333,W,038.9,289.8,140819,000.0,W*6A
$GPGGA,195401.984,4732.262,N,12220.347,W,1,12,1.0,0.0,M,0.0,M,,*76
$GPGSA,A,3,01,02,03,04,05,06,07,08,09,10,11,12,1.0,1.0,1.0*30
$GPRMC,195401.984,A,4732.262,N,12220.347,W,038.9,289.8,140819,000.0,W*6E
$GPGGA,195402.984,4732.267,N,12220.362,W,1,12,1.0,0.0,M,0.0,M,,*77
$GPGSA,A,3,01,02,03,04,05,06,07,08,09,10,11,12,1.0,1.0,1.0*30
$GPRMC,195402.984,A,4732.267,N,12220.362,W,038.9,289.8,140819,000.0,W*6F
$GPGGA,195403.984,4732.272,N,12220.376,W,1,12,1.0,0.0,M,0.0,M,,*77
$GPGSA,A,3,01,02,03,04,05,06,07,08,09,10,11,12,1.0,1.0,1.0*30
$GPRMC,195403.984,A,4732.272,N,12220.376,W,038.9,289.8,140819,000.0,W*6F
$GPGGA,195404.984,4732.278,N,12220.390,W,1,12,1.0,0.0,M,0.0,M,,*72
$GPGSA,A,3,01,02,03,04,05,06,07,08,09,10,11,12,1.0,1.0,1.0*30
$GPRMC,195404.984,A,4732.278,N,12220.390,W,038.9,289.8,140819,000.0,W*6A
$GPGGA,195405.984,4732.283,N,12220.404,W,1,12,1.0,0.0,M,0.0,M,,*7D
$GPGSA,A,3,01,02,03,04,05,06,07,08,09,10,11,12,1.0,1.0,1.0*30
$GPRMC,195405.984,A,4732.283,N,12220.404,W,038.9,289.8,140819,000.0,W*65
$GPGGA,195406.984,4732.288,N,12220.418,W,1,12,1.0,0.0,M,0.0,M,,*78
$GPGSA,A,3,01,02,03,04,05,06,07,08,09,10,11,12,1.0,1.0,1.0*30
$GPRMC,195406.984,A,4732.288,N,12220.418,W,038.9,289.8,140819,000.0,W*60
$GPGGA,195407.984,4732.293,N,12220.432,W,1,12,1.0,0.0,M,0.0,M,,*7B
$GPGSA,A,3,01,02,03,04,05,06,07,08,09,10,11,12,1.0,1.0,1.0*30
$GPRMC,195407.984,A,4732.293,N,12220.432,W,038.9,289.8,140819,000.0,W*63
$GPGGA,195408.984,4732.298,N,12220.446,W,1,12,1.0,0.0,M,0.0,M,,*7C
$GPGSA,A,3,01,02,03,04,05,06,07,08,09,10,11,12,1.0,1.0,1.0*30
$GPRMC,195408.984,A,4732.298,N,12220.446,W,038.9,289.8,140819,000.0,W*64
$GPGGA,195409.984,4732.303,N,12220.460,W,1,12,1.0,0.0,M,0.0,M,,*7A
$GPGSA,A,3,01,02,03,04,05,06,07,08,09,10,11,12,1.0,1.0,1.0*30
$GPRMC,195409.984,A,4732.303,N,12220.460,W,038.9,289.8,140819,000.0,W*62
$GPGGA,195410.984,4732.308,N,12220.474,W,1,12,1.0,0.0,M,0.0,M,,*7C
$GPGSA,A,3,01,02,03,04,05,06,07,08,09,10,11,12,1.0,1.0,1.0*30
$GPRMC,195410.984,A,4732.308,N,12220.474,W,038.9,289.8,140819,000.0,W*64
$GPGGA,195411.984,4732.313,N,12220.489,W,1,12,1.0,0.0,M,0.0,M,,*75
$GPGSA,A,3,01,02,03,04,05,06,07,08,09,10,11,12,1.0,1.0,1.0*30
$GPRMC,195411.984,A,4732.313,N,12220.489,W,038.9,289.8,140819,000.0,W*6D
$GPGGA,195412.984,4732.318,N,12220.503,W,1,12,1.0,0.0,M,0.0,M,,*7E
$GPGSA,A,3,01,02,03,04,05,06,07,08,09,10,11,12,1.0,1.0,1.0*30
$GPRMC,195412.984,A,4732.318,N,12220.503,W,038.9,289.8,140819,000.0,W*66
$GPGGA,195413.984,4732.323,N,12220.517,W,1,12,1.0,0.0,M,0.0,M,,*72
$GPGSA,A,3,01,02,03,04,05,06,07,08,09,10,11,12,1.0,1.0,1.0*30
$GPRMC,195413.984,A,4732.323,N,12220.517,W,038.9,289.8,140819,000.0,W*6A
$GPGGA,195414.984,4732.328,N,12220.531,W,1,12,1.0,0.0,M,0.0,M,,*7A
$GPGSA,A,3,01,02,03,04,05,06,07,08,09,10,11,12,1.0,1.0,1.0*30
$GPRMC,195414.984,A,4732.328,N,12220.531,W,038.9,289.8,140819,000.0,W*62
$GPGGA,195415.984,4732.333,N,12220.545,W,1,12,1.0,0.0,M,0.0,M,,*72
$GPGSA,A,3,01,02,03,04,05,06,07,08,09,10,11,12,1.0,1.0,1.0*30
$GPRMC,195415.984,A,4732.333,N,12220.545,W,038.9,289.8,140819,000.0,W*6A
$GPGGA,195416.984,4732.338,N,12220.559,W,1,12,1.0,0.0,M,0.0,M,,*77
$GPGSA,A,3,01,02,03,04,05,06,07,08,09,10,11,12,1.0,1.0,1.0*30
$GPRMC,195416.984,A,4732.338,N,12220.559,W,038.9,289.8,140819,000.0,W*6F
$GPGGA,195417.984,4732.343,N,12220.573,W,1,12,1.0,0.0,M,0.0,M,,*72
$GPGSA,A,3,01,02,03,04,05,06,07,08,09,10,11,12,1.0,1.0,1.0*30
$GPRMC,195417.984,A,4732.343,N,12220.573,W,038.9,289.8,140819,000.0,W*6A
$GPGGA,195418.984,4732.349,N,12220.587,W,1,12,1.0,0.0,M,0.0,M,,*7C
$GPGSA,A,3,01,02,03,04,05,06,07,08,09,10,11,12,1.0,1.0,1.0*30
$GPRMC,195418.984,A,4732.349,N,12220.587,W,038.9,289.8,140819,000.0,W*64
$GPGGA,195419.984,4732.354,N,12220.601,W,1,12,1.0,0.0,M,0.0,M,,*7C
$GPGSA,A,3,01,02,03,04,05,06,07,08,09,10,11,12,1.0,1.0,1.0*30
$GPRMC,195419.984,A,4732.354,N,12220.601,W,038.9,289.8,140819,000.0,W*64
$GPGGA,195420.984,4732.359,N,12220.616,W,1,12,1.0,0.0,M,0.0,M,,*7D
$GPGSA,A,3,01,02,03,04,05,06,07,08,09,10,11,12,1.0,1.0,1.0*30
$GPRMC,195420.984,A,4732.359,N,12220.616,W,038.9,289.8,140819,000.0,W*65
$GPGGA,195421.984,4732.364,N,12220.630,W,1,12,1.0,0.0,M,0.0,M,,*76
$GPGSA,A,3,01,02,03,04,05,06,07,08,09,10,11,12,1.0,1.0,1.0*30
$GPRMC,195421.984,A,4732.364,N,12220.630,W,038.9,289.8,140819,000.0,W*6E
$GPGGA,195422.984,4732.369,N,12220.644,W,1,12,1.0,0.0,M,0.0,M,,*7B
$GPGSA,A,3,01,02,03,04,05,06,07,08,09,10,11,12,1.0,1.0,1.0*30
$GPRMC,195422.984,A,4732.369,N,12220.644,W,038.9,289.8,140819,000.0,W*63
$GPGGA,195423.984,4732.374,N,12220.658,W,1,12,1.0,0.0,M,0.0,M,,*7B
$GPGSA,A,3,01,02,03,04,05,06,07,08,09,10,11,12,1.0,1.0,1.0*30
$GPRMC,195423.984,A,4732.374,N,12220.658,W,038.9,289.8,140819,000.0,W*63
$GPGGA,195424.984,4732.379,N,12220.672,W,1,12,1.0,0.0,M,0.0,M,,*79
$GPGSA,A,3,01,02,03,04,05,06,07,08,09,10,11,12,1.0,1.0,1.0*30
$GPRMC,195424.984,A,4732.379,N,12220.672,W,038.9,289.8,140819,000.0,W*61
$GPGGA,195425.984,4732.384,N,12220.686,W,1,12,1.0,0.0,M,0.0,M,,*71
$GPGSA,A,3,01,02,03,04,05,06,07,08,09,10,11,12,1.0,1.0,1.0*30
$GPRMC,195425.984,A,4732.384,N,12220.686,W,038.9,289.8,140819,000.0,W*69
$GPGGA,195426.984,4732.389,N,12220.700,W,1,12,1.0,0.0,M,0.0,M,,*70
$GPGSA,A,3,01,02,03,04,05,06,07,08,09,10,11,12,1.0,1.0,1.0*30
$GPRMC,195426.984,A,4732.389,N,12220.700,W,038.9,289.8,140819,000.0,W*68
$GPGGA,195427.984,4732.394,N,12220.714,W,1,12,1.0,0.0,M,0.0,M,,*78
$GPGSA,A,3,01,02,03,04,05,06,07,08,09,10,11,12,1.0,1.0,1.0*30
$GPRMC,195427.984,A,4732.394,N,12220.714,W,038.9,289.8,140819,000.0,W*60
$GPGGA,195428.984,4732.399,N,12220.728,W,1,12,1.0,0.0,M,0.0,M,,*75
$GPGSA,A,3,01,02,03,04,05,06,07,08,09,10,11,12,1.0,1.0,1.0*30
$GPRMC,195428.984,A,4732.399,N,12220.728,W,038.9,289.8,140819,000.0,W*6D
$GPGGA,195429.984,4732.404,N,12220.743,W,1,12,1.0,0.0,M,0.0,M,,*7A
$GPGSA,A,3,01,02,03,04,05,06,07,08,09,10,11,12,1.0,1.0,1.0*30
$GPRMC,195429.984,A,4732.404,N,12220.743,W,038.9,289.8,140819,000.0,W*62
$GPGGA,195430.984,4732.409,N,12220.757,W,1,12,1.0,0.0,M,0.0,M,,*7A
$GPGSA,A,3,01,02,03,04,05,06,07,08,09,10,11,12,1.0,1.0,1.0*30
$GPRMC,195430.984,A,4732.409,N,12220.757,W,038.9,289.8,140819,000.0,W*62
$GPGGA,195431.984,4732.414,N,12220.771,W,1,12,1.0,0.0,M,0.0,M,,*73
$GPGSA,A,3,01,02,03,04,05,06,07,08,09,10,11,12,1.0,1.0,1.0*30
$GPRMC,195431.984,A,4732.414,N,12220.771,W,038.9,289.8,140819,000.0,W*6B
$GPGGA,195432.984,4732.419,N,12220.785,W,1,12,1.0,0.0,M,0.0,M,,*76
$GPGSA,A,3,01,02,03,04,05,06,07,08,09,10,11,12,1.0,1.0,1.0*30
$GPRMC,195432.984,A,4732.419,N,12220.785,W,038.9,289.8,140819,000.0,W*6E
$GPGGA,195433.984,4732.425,N,12220.799,W,1,12,1.0,0.0,M,0.0,M,,*75
$GPGSA,A,3,01,02,03,04,05,06,07,08,09,10,11,12,1.0,1.0,1.0*30
$GPRMC,195433.984,A,4732.425,N,12220.799,W,038.9,289.8,140819,000.0,W*6D
$GPGGA,195434.984,4732.430,N,12220.813,W,1,12,1.0,0.0,M,0.0,M,,*7B
$GPGSA,A,3,01,02,03,04,05,06,07,08,09,10,11,12,1.0,1.0,1.0*30
$GPRMC,195434.984,A,4732.430,N,12220.813,W,038.9,289.8,140819,000.0,W*63
$GPGGA,195435.984,4732.435,N,12220.827,W,1,12,1.0,0.0,M,0.0,M,,*78
$GPGSA,A,3,01,02,03,04,05,06,07,08,09,10,11,12,1.0,1.0,1.0*30
$GPRMC,195435.984,A,4732.435,N,12220.827,W,038.9,289.8,140819,000.0,W*60
$GPGGA,195436.984,4732.440,N,12220.841,W,1,12,1.0,0.0,M,0.0,M,,*79
$GPGSA,A,3,01,02,03,04,05,06,07,08,09,10,11,12,1.0,1.0,1.0*30
$GPRMC,195436.984,A,4732.440,N,12220.841,W,038.9,289.8,140819,000.0,W*61
$GPGGA,195437.984,4732.445,N,12220.856,W,1,12,1.0,0.0,M,0.0,M,,*7B
$GPGSA,A,3,01,02,03,04,05,06,07,08,09,10,11,12,1.0,1.0,1.0*30
$GPRMC,195437.984,A,4732.445,N,12220.856,W,038.9,289.8,140819,000.0,W*63
$GPGGA,195438.984,4732.450,N,12220.870,W,1,12,1.0,0.0,M,0.0,M,,*74
$GPGSA,A,3,01,02,03,04,05,06,07,08,09,10,11,12,1.0,1.0,1.0*30
$GPRMC,195438.984,A,4732.450,N,12220.870,W,038.9,289.8,140819,000.0,W*6C
$GPGGA,195439.984,4732.455,N,12220.884,W,1,12,1.0,0.0,M,0.0,M,,*7B
$GPGSA,A,3,01,02,03,04,05,06,07,08,09,10,11,12,1.0,1.0,1.0*30
$GPRMC,195439.984,A,4732.455,N,12220.884,W,038.9,289.8,140819,000.0,W*63
$GPGGA,195440.984,4732.460,N,12220.898,W,1,12,1.0,0.0,M,0.0,M,,*7E
$GPGSA,A,3,01,02,03,04,05,06,07,08,09,10,11,12,1.0,1.0,1.0*30
$GPRMC,195440.984,A,4732.460,N,12220.898,W,038.9,289.8,140819,000.0,W*66
$GPGGA,195441.984,4732.465,N,12220.912,W,1,12,1.0,0.0,M,0.0,M,,*79
$GPGSA,A,3,01,02,03,04,05,06,07,08,09,10,11,12,1.0,1.0,1.0*30
$GPRMC,195441.984,A,4732.465,N,12220.912,W,038.9,289.8,140819,000.0,W*61
$GPGGA,195442.984,4732.470,N,12220.926,W,1,12,1.0,0.0,M,0.0,M,,*79
$GPGSA,A,3,01,02,03,04,05,06,07,08,09,10,11,12,1.0,1.0,1.0*30
$GPRMC,195442.984,A,4732.470,N,12220.926,W,038.9,289.8,140819,000.0,W*61
$GPGGA,195443.984,4732.475,N,12220.940,W,1,12,1.0,0.0,M,0.0,M,,*7D
$GPGSA,A,3,01,02,03,04,05,06,07,08,09,10,11,12,1.0,1.0,1.0*30
$GPRMC,195443.984,A,4732.475,N,12220.940,W,038.9,289.8,140819,000.0,W*65
$GPGGA,195444.984,4732.480,N,12220.954,W,1,12,1.0,0.0,M,0.0,M,,*75
$GPGSA,A,3,01,02,03,04,05,06,07,08,09,10,11,12,1.0,1.0,1.0*30
$GPRMC,195444.984,A,4732.480,N,12220.954,W,038.9,289.8,140819,000.0,W*6D
$GPGGA,195445.984,4732.485,N,12220.968,W,1,12,1.0,0.0,M,0.0,M,,*7E
$GPGSA,A,3,01,02,03,04,05,06,07,08,09,10,11,12,1.0,1.0,1.0*30
$GPRMC,195445.984,A,4732.485,N,12220.968,W,038.9,289.8,140819,000.0,W*66
$GPGGA,195446.984,4732.490,N,12220.983,W,1,12,1.0,0.0,M,0.0,M,,*7C
$GPGSA,A,3,01,02,03,04,05,06,07,08,09,10,11,12,1.0,1.0,1.0*30
$GPRMC,195446.984,A,4732.490,N,12220.983,W,038.9,289.8,140819,000.0,W*64
$GPGGA,195447.984,4732.496,N,12220.997,W,1,12,1.0,0.0,M,0.0,M,,*7E
$GPGSA,A,3,01,02,03,04,05,06,07,08,09,10,11,12,1.0,1.0,1.0*30
$GPRMC,195447.984,A,4732.496,N,12220.997,W,038.9,289.8,140819,000.0,W*66
$GPGGA,195448.984,4732.501,N,12221.011,W,1,12,1.0,0.0,M,0.0,M,,*78
$GPGSA,A,3,01,02,03,04,05,06,07,08,09,10,11,12,1.0,1.0,1.0*30
$GPRMC,195448.984,A,4732.501,N,12221.011,W,038.9,289.8,140819,000.0,W*60
$GPGGA,195449.984,4732.506,N,12221.025,W,1,12,1.0,0.0,M,0.0,M,,*79
$GPGSA,A,3,01,02,03,04,05,06,07,08,09,10,11,12,1.0,1.0,1.0*30
$GPRMC,195449.984,A,4732.506,N,12221.025,W,038.9,289.8,140819,000.0,W*61
$GPGGA,195450.984,4732.511,N,12221.039,W,1,12,1.0,0.0,M,0.0,M,,*7A
$GPGSA,A,3,01,02,03,04,05,06,07,08,09,10,11,12,1.0,1.0,1.0*30
$GPRMC,195450.984,A,4732.511,N,12221.039,W,038.9,289.8,140819,000.0,W*62
$GPGGA,195451.984,4732.516,N,12221.053,W,1,12,1.0,0.0,M,0.0,M,,*70
$GPGSA,A,3,01,02,03,04,05,06,07,08,09,10,11,12,1.0,1.0,1.0*30
$GPRMC,195451.984,A,4732.516,N,12221.053,W,038.9,289.8,140819,000.0,W*68
$GPGGA,195452.984,4732.521,N,12221.067,W,1,12,1.0,0.0,M,0.0,M,,*70
$GPGSA,A,3,01,02,03,04,05,06,07,08,09,10,11,12,1.0,1.0,1.0*30
$GPRMC,195452.984,A,4732.521,N,12221.067,W,038.9,289.8,140819,000.0,W*68
$GPGGA,195453.984,4732.526,N,12221.081,W,1,12,1.0,0.0,M,0.0,M,,*7E
$GPGSA,A,3,01,02,03,04,05,06,07,08,09,10,11,12,1.0,1.0,1.0*30
$GPRMC,195453.984,A,4732.526,N,12221.081,W,038.9,289.8,140819,000.0,W*66
$GPGGA,195454.984,4732.531,N,12221.095,W,1,12,1.0,0.0,M,0.0,M,,*7A
$GPGSA,A,3,01,02,03,04,05,06,07,08,09,10,11,12,1.0,1.0,1.0*30
$GPRMC,195454.984,A,4732.531,N,12221.095,W,038.9,289.8,140819,000.0,W*62
$GPGGA,195455.984,4732.536,N,12221.110,W,1,12,1.0,0.0,M,0.0,M,,*70
$GPGSA,A,3,01,02,03,04,05,06,07,08,09,10,11,12,1.0,1.0,1.0*30
$GPRMC,195455.984,A,4732.536,N,12221.110,W,038.9,289.8,140819,000.0,W*68
$GPGGA,195456.984,4732.541,N,12221.124,W,1,12,1.0,0.0,M,0.0,M,,*74
$GPGSA,A,3,01,02,03,04,05,06,07,08,09,10,11,12,1.0,1.0,1.0*30
$GPRMC,195456.984,A,4732.541,N,12221.124,W,038.9,289.8,140819,000.0,W*6C
$GPGGA,195457.984,4732.546,N,12221.138,W,1,12,1.0,0.0,M,0.0,M,,*7F
$GPGSA,A,3,01,02,03,04,05,06,07,08,09,10,11,12,1.0,1.0,1.0*30
$GPRMC,195457.984,A,4732.546,N,12221.138,W,038.9,289.8,140819,000.0,W*67
$GPGGA,195458.984,4732.551,N,12221.152,W,1,12,1.0,0.0,M,0.0,M,,*7A
$GPGSA,A,3,01,02,03,04,05,06,07,08,09,10,11,12,1.0,1.0,1.0*30
$GPRMC,195458.984,A,4732.551,N,12221.152,W,038.9,289.8,140819,000.0,W*62
$GPGGA,195459.984,4732.556,N,12221.166,W,1,12,1.0,0.0,M,0.0,M,,*7B
$GPGSA,A,3,01,02,03,04,05,06,07,08,09,10,11,12,1.0,1.0,1.0*30
$GPRMC,195459.984,A,4732.556,N,12221.166,W,038.9,289.8,140819,000.0,W*63
$GPGGA,195500.984,4732.561,N,12221.180,W,1,12,1.0,0.0,M,0.0,M,,*7A
$GPGSA,A,3,01,02,03,04,05,06,07,08,09,10,11,12,1.0,1.0,1.0*30
$GPRMC,195500.984,A,4732.561,N,12221.180,W,038.9,289.8,140819,000.0,W*62
$GPGGA,195501.984,4732.567,N,12221.194,W,1,12,1.0,0.0,M,0.0,M,,*78
$GPGSA,A,3,01,02,03,04,05,06,07,08,09,10,11,12,1.0,1.0,1.0*30
$GPRMC,195501.984,A,4732.567,N,12221.194,W,038.9,289.8,140819,000.0,W*60
$GPGGA,195502.984,4732.572,N,12221.208,W,1,12,1.0,0.0,M,0.0,M,,*79
$GPGSA,A,3,01,02,03,04,05,06,07,08,09,10,11,12,1.0,1.0,1.0*30
$GPRMC,195502.984,A,4732.572,N,12221.208,W,038.9,289.8,140819,000.0,W*61
$GPGGA,195503.984,4732.577,N,12221.222,W,1,12,1.0,0.0,M,0.0,M,,*75
$GPGSA,A,3,01,02,03,04,05,06,07,08,09,10,11,12,1.0,1.0,1.0*30
$GPRMC,195503.984,A,4732.577,N,12221.222,W,038.9,289.8,140819,000.0,W*6D
$GPGGA,195504.984,4732.582,N,12221.237,W,1,12,1.0,0.0,M,0.0,M,,*7C
$GPGSA,A,3,01,02,03,04,05,06,07,08,09,10,11,12,1.0,1.0,1.0*30
$GPRMC,195504.984,A,4732.582,N,12221.237,W,038.9,289.8,140819,000.0,W*64
$GPGGA,195505.984,4732.587,N,12221.251,W,1,12,1.0,0.0,M,0.0,M,,*78
$GPGSA,A,3,01,02,03,04,05,06,07,08,09,10,11,12,1.0,1.0,1.0*30
$GPRMC,195505.984,A,4732.587,N,12221.251,W,038.9,289.8,140819,000.0,W*60
$GPGGA,195506.984,4732.592,N,12221.265,W,1,12,1.0,0.0,M,0.0,M,,*78
$GPGSA,A,3,01,02,03,04,05,06,07,08,09,10,11,12,1.0,1.0,1.0*30
$GPRMC,195506.984,A,4732.592,N,12221.265,W,038.9,289.8,140819,000.0,W*60
$GPGGA,195507.984,4732.597,N,12221.279,W,1,12,1.0,0.0,M,0.0,M,,*71
$GPGSA,A,3,01,02,03,04,05,06,07,08,09,10,11,12,1.0,1.0,1.0*30
$GPRMC,195507.984,A,4732.597,N,12221.279,W,038.9,289.8,140819,000.0,W*69
$GPGGA,195508.984,4732.602,N,12221.293,W,1,12,1.0,0.0,M,0.0,M,,*75
$GPGSA,A,3,01,02,03,04,05,06,07,08,09,10,11,12,1.0,1.0,1.0*30
$GPRMC,195508.984,A,4732.602,N,12221.293,W,038.9,289.8,140819,000.0,W*6D
$GPGGA,195509.984,4732.607,N,12221.307,W,1,12,1.0,0.0,M,0.0,M,,*7D
$GPGSA,A,3,01,02,03,04,05,06,07,08,09,10,11,12,1.0,1.0,1.0*30
$GPRMC,195509.984,A,4732.607,N,12221.307,W,038.9,289.8,140819,000.0,W*65
$GPGGA,195510.984,4732.612,N,12221.321,W,1,12,1.0,0.0,M,0.0,M,,*75
$GPGSA,A,3,01,02,03,04,05,06,07,08,09,10,11,12,1.0,1.0,1.0*30
$GPRMC,195510.984,A,4732.612,N,12221.321,W,038.9,289.8,140819,000.0,W*6D
$GPGGA,195511.984,4732.617,N,12221.335,W,1,12,1.0,0.0,M,0.0,M,,*74
$GPGSA,A,3,01,02,03,04,05,06,07,08,09,10,11,12,1.0,1.0,1.0*30
$GPRMC,195511.984,A,4732.617,N,12221.335,W,038.9,289.8,140819,000.0,W*6C
$GPGGA,195512.984,4732.622,N,12221.349,W,1,12,1.0,0.0,M,0.0,M,,*7A
$GPGSA,A,3,01,02,03,04,05,06,07,08,09,10,11,12,1.0,1.0,1.0*30
$GPRMC,195512.984,A,4732.622,N,12221.349,W,038.9,289.8,140819,000.0,W*62
$GPGGA,195513.984,4732.627,N,12221.364,W,1,12,1.0,0.0,M,0.0,M,,*71
$GPGSA,A,3,01,02,03,04,05,06,07,08,09,10,11,12,1.0,1.0,1.0*30
$GPRMC,195513.984,A,4732.627,N,12221.364,W,038.9,289.8,140819,000.0,W*69
$GPGGA,195514.984,4732.632,N,12221.378,W,1,12,1.0,0.0,M,0.0,M,,*7F
$GPGSA,A,3,01,02,03,04,05,06,07,08,09,10,11,12,1.0,1.0,1.0*30
$GPRMC,195514.984,A,4732.632,N,12221.378,W,038.9,289.8,140819,000.0,W*67
$GPGGA,195515.984,4732.638,N,12221.392,W,1,12,1.0,0.0,M,0.0,M,,*70
$GPGSA,A,3,01,02,03,04,05,06,07,08,09,10,11,12,1.0,1.0,1.0*30
$GPRMC,195515.984,A,4732.638,N,12221.392,W,038.9,289.8,140819,000.0,W*68
$GPGGA,195516.984,4732.643,N,12221.406,W,1,12,1.0,0.0,M,0.0,M,,*75
$GPGSA,A,3,01,02,03,04,05,06,07,08,09,10,11,12,1.0,1.0,1.0*30
$GPRMC,195516.984,A,4732.643,N,12221.406,W,038.9,289.8,140819,000.0,W*6D
$GPGGA,195517.984,4732.648,N,12221.420,W,1,12,1.0,0.0,M,0.0,M,,*7B
$GPGSA,A,3,01,02,03,04,05,06,07,08,09,10,11,12,1.0,1.0,1.0*30
$GPRMC,195517.984,A,4732.648,N,12221.420,W,038.9,289.8,140819,000.0,W*63
$GPGGA,195518.984,4732.653,N,12221.434,W,1,12,1.0,0.0,M,0.0,M,,*7B
$GPGSA,A,3,01,02,03,04,05,06,07,08,09,10,11,12,1.0,1.0,1.0*30
$GPRMC,195518.984,A,4732.653,N,12221.434,W,038.9,289.8,140819,000.0,W*63
$GPGGA,195519.984,4732.658,N,12221.448,W,1,12,1.0,0.0,M,0.0,M,,*7A
$GPGSA,A,3,01,02,03,04,05,06,07,08,09,10,11,12,1.0,1.0,1.0*30
